{"type":"FeatureCollection","features":[{"type":"Feature","properties":{"id":1000550952,"title":"Beinwil am See: Hallwilersee Nord 1","city":"Beinwil am See","country_code":"CH","elevation":549},"geometry":{"coordinates":[8.205056,47.260586,549],"type":"Point"}},{"type":"Feature","properties":{"id":1010004899,"title":"Beinwil am See: Hallwilersee Nord 2","city":"Beinwil am See","country_code":"CH","elevation":446},"geometry":{"coordinates":[8.21125,47.269445,446],"type":"Point"}},{"type":"Feature","properties":{"id":1010222761,"title":"Grindelwald: Männlichen, Blick zur Jungfrau","city":"Grindelwald","country_code":"CH","elevation":2222},"geometry":{"coordinates":[7.942085,46.611243,2222],"type":"Point"}},{"type":"Feature","properties":{"id":1010433724,"title":"Schwyz: Mythenregion - Einsiedeln (Hotel Passhöhe Ibergeregg)","city":"Schwyz","country_code":"CH","elevation":1393},"geometry":{"coordinates":[8.733337,47.017286,1393],"type":"Point"}},{"type":"Feature","properties":{"id":1010434248,"title":"Engelberg: Titlis Stand 2","city":"Engelberg","country_code":"CH","elevation":2898},"geometry":{"coordinates":[8.42617,46.774142,2898],"type":"Point"}},{"type":"Feature","properties":{"id":1010434642,"title":"Wolfenschiessen: Titlis Trübsee","city":"Wolfenschiessen","country_code":"CH","elevation":1764},"geometry":{"coordinates":[8.398361,46.791363,1764],"type":"Point"}},{"type":"Feature","properties":{"id":1010435704,"title":"Solothurn","city":"Solothurn","country_code":"CH","elevation":450},"geometry":{"coordinates":[7.536621,47.208374,450],"type":"Point"}},{"type":"Feature","properties":{"id":1010609154,"title":"Schwyz: Mythenregion - Einsiedeln (Bergstation Brünnelistock)","city":"Schwyz","country_code":"CH","elevation":1578},"geometry":{"coordinates":[8.727959,47.025257,1578],"type":"Point"}},{"type":"Feature","properties":{"id":1010908662,"title":"Grindelwald: First - LIVE (2168 m.ü.M)","city":"Grindelwald","country_code":"CH","elevation":2129},"geometry":{"coordinates":[8.055725,46.658627,2129],"type":"Point"}},{"type":"Feature","properties":{"id":1010992123,"title":"Splugen: Tanatzhöhe Skigebiet","city":"Splugen","country_code":"CH","elevation":2139},"geometry":{"coordinates":[9.314089,46.530273,2139],"type":"Point"}},{"type":"Feature","properties":{"id":1010993577,"title":"Bettmeralp: Aletsch Arena - Skipiste","city":"Bettmeralp","country_code":"CH","elevation":2493},"geometry":{"coordinates":[8.07229,46.406804,2493],"type":"Point"}},{"type":"Feature","properties":{"id":1010993718,"title":"Bettmeralp: Aletsch Arena - Bettmerhorn II","city":"Bettmeralp","country_code":"CH","elevation":2566},"geometry":{"coordinates":[8.073449,46.411393,2566],"type":"Point"}},{"type":"Feature","properties":{"id":1011371583,"title":"Laax: Vorab Gletscher","city":"Laax","country_code":"CH","elevation":2567},"geometry":{"coordinates":[9.181223,46.873336,2567],"type":"Point"}},{"type":"Feature","properties":{"id":1011516521,"title":"Kandersteg: Hotel Bernerhof","city":"Kandersteg","country_code":"CH","elevation":1177},"geometry":{"coordinates":[7.674508,46.496797,1177],"type":"Point"}},{"type":"Feature","properties":{"id":1012331371,"title":"Surses: Berghuus Radons","city":"Surses","country_code":"CH","elevation":1867},"geometry":{"coordinates":[9.553299,46.559569,1867],"type":"Point"}},{"type":"Feature","properties":{"id":1015075148,"title":"Kandersteg: Autoverlad Lötschberg","city":"Kandersteg","country_code":"CH","elevation":1175},"geometry":{"coordinates":[7.671976,46.495911,1175],"type":"Point"}},{"type":"Feature","properties":{"id":1017053828,"title":"Nesslau: Toggenburg Alpakas 2","city":"Nesslau","country_code":"CH","elevation":841},"geometry":{"coordinates":[9.225769,47.199044,841],"type":"Point"}},{"type":"Feature","properties":{"id":1017402016,"title":"Poschiavo: Swizzera","city":"Poschiavo","country_code":"CH","elevation":2616},"geometry":{"coordinates":[9.988632,46.324561,2616],"type":"Point"}},{"type":"Feature","properties":{"id":1017402470,"title":"Quinto: Ambri Airport","city":"Quinto","country_code":"CH","elevation":1275},"geometry":{"coordinates":[8.738079,46.502646,1275],"type":"Point"}},{"type":"Feature","properties":{"id":1017402518,"title":"Locarno: Monti","city":"Locarno","country_code":"CH","elevation":496},"geometry":{"coordinates":[8.782196,46.175076,496],"type":"Point"}},{"type":"Feature","properties":{"id":1017402563,"title":"Paradiso: Lugano","city":"Paradiso","country_code":"CH","elevation":309},"geometry":{"coordinates":[8.950273,45.988519,309],"type":"Point"}},{"type":"Feature","properties":{"id":1018690405,"title":"Langenbruck: Deinkick Solarbob Seilpark","city":"Langenbruck","country_code":"CH","elevation":704},"geometry":{"coordinates":[7.769297,47.345228,704],"type":"Point"}},{"type":"Feature","properties":{"id":1022317836,"title":"Zurich: University of Zurich - Swiss National Museum - Zürich, Zürich HB - ETH Zurich - Uetliberg","city":"Zurich","country_code":"CH","elevation":477},"geometry":{"coordinates":[8.548506,47.379219,477],"type":"Point"}},{"type":"Feature","properties":{"id":1022924078,"title":"Grindelwald: Grindelwald - Dorf - Wetterhorn","city":"Grindelwald","country_code":"CH","elevation":984},"geometry":{"coordinates":[8.024826,46.619379,984],"type":"Point"}},{"type":"Feature","properties":{"id":1027160066,"title":"Schaffhausen: Vordergasse","city":"Schaffhausen","country_code":"CH","elevation":407},"geometry":{"coordinates":[8.635061,47.696361,407],"type":"Point"}},{"type":"Feature","properties":{"id":1027160200,"title":"Koniz: Berne - Bantiger - Grauholz","city":"Koniz","country_code":"CH","elevation":566},"geometry":{"coordinates":[7.429719,46.933107,566],"type":"Point"}},{"type":"Feature","properties":{"id":1038134454,"title":"Gersau › South-East","city":"Gersau","country_code":"CH","elevation":442},"geometry":{"coordinates":[8.52141,46.993624,442],"type":"Point"}},{"type":"Feature","properties":{"id":1040549429,"title":"Alt St. Johann: Chäserrugg","city":"Alt St. Johann","country_code":"CH","elevation":2257},"geometry":{"coordinates":[9.313016,47.155297,2257],"type":"Point"}},{"type":"Feature","properties":{"id":1042036855,"title":"Dittingen: Flugplatz - LSPD","city":"Dittingen","country_code":"CH","elevation":536},"geometry":{"coordinates":[7.490766,47.438204,536],"type":"Point"}},{"type":"Feature","properties":{"id":1045125010,"title":"Schwyz: Mythenregion - Einsiedeln (Talstation Handgruobi)","city":"Schwyz","country_code":"CH","elevation":1064},"geometry":{"coordinates":[8.711016,47.00789,1064],"type":"Point"}},{"type":"Feature","properties":{"id":1045500031,"title":"Degersheim","city":"Degersheim","country_code":"CH","elevation":883},"geometry":{"coordinates":[9.183766,47.372627,883],"type":"Point"}},{"type":"Feature","properties":{"id":1048420603,"title":"Sonnental: Niederuzwil MeteoTop","city":"Sonnental","country_code":"CH","elevation":502},"geometry":{"coordinates":[9.146118,47.457809,502],"type":"Point"}},{"type":"Feature","properties":{"id":1049027676,"title":"Aarau: Stadt","city":"Aarau","country_code":"CH","elevation":404},"geometry":{"coordinates":[8.047458,47.389065,404],"type":"Point"}},{"type":"Feature","properties":{"id":1049064406,"title":"Friedrichshafen: Wetter östl. Bodensee","city":"Friedrichshafen","country_code":"DE","elevation":410},"geometry":{"coordinates":[9.466095,47.664462,410],"type":"Point"}},{"type":"Feature","properties":{"id":1049529921,"title":"Capriasca: Lugano San Salvatore","city":"Capriasca","country_code":"CH","elevation":648},"geometry":{"coordinates":[8.976967,46.069327,648],"type":"Point"}},{"type":"Feature","properties":{"id":1050671396,"title":"Naters: Belalp Aletschbord auf den grossen Aletschgletscher","city":"Naters","country_code":"CH","elevation":2165},"geometry":{"coordinates":[7.990054,46.381348,2165],"type":"Point"}},{"type":"Feature","properties":{"id":1054917524,"title":"Feldberg: Seebuck Gipfel I - Baden-W","city":"Feldberg","country_code":"DE","elevation":1438},"geometry":{"coordinates":[8.022283,47.864299,1438],"type":"Point"}},{"type":"Feature","properties":{"id":1057567313,"title":"Unterschlatt: Appenzell Wetter","city":"Unterschlatt","country_code":"CH","elevation":940},"geometry":{"coordinates":[9.396883,47.35672,940],"type":"Point"}},{"type":"Feature","properties":{"id":1059054241,"title":"Beinwil am See: Hallwilersee Ost 2","city":"Beinwil am See","country_code":"CH","elevation":479},"geometry":{"coordinates":[8.207989,47.267349,479],"type":"Point"}},{"type":"Feature","properties":{"id":1059054312,"title":"Beinwil am See: Hallwilersee Ost 1","city":"Beinwil am See","country_code":"CH","elevation":456},"geometry":{"coordinates":[8.212109,47.26665,456],"type":"Point"}},{"type":"Feature","properties":{"id":1059055887,"title":"Lucerne","city":"Lucerne","country_code":"CH","elevation":447},"geometry":{"coordinates":[8.315856,47.054584,447],"type":"Point"}},{"type":"Feature","properties":{"id":1059056842,"title":"Stans: Stanserhorn Live-Bild","city":"Stans","country_code":"CH","elevation":1834},"geometry":{"coordinates":[8.340307,46.929759,1834],"type":"Point"}},{"type":"Feature","properties":{"id":1060674958,"title":"Baretswil: Skilift Ghöch","city":"Baretswil","country_code":"CH","elevation":957},"geometry":{"coordinates":[8.902177,47.333678,957],"type":"Point"}},{"type":"Feature","properties":{"id":1061113069,"title":"Zweisimmen: Rinderberg Mittelstation","city":"Zweisimmen","country_code":"CH","elevation":1447},"geometry":{"coordinates":[7.363476,46.525772,1447],"type":"Point"}},{"type":"Feature","properties":{"id":1061908500,"title":"Bettmeralp: Aletsch Arena - Dorf","city":"Bettmeralp","country_code":"CH","elevation":1976},"geometry":{"coordinates":[8.061025,46.389644,1976],"type":"Point"}},{"type":"Feature","properties":{"id":1064226293,"title":"Sankt Kanzian am Klopeiner See: Ferienregion Klopeinersee-Turnersee in","city":"Sankt Kanzian am Klopeiner See","country_code":"AT","elevation":508},"geometry":{"coordinates":[14.563193,46.588745,508],"type":"Point"}},{"type":"Feature","properties":{"id":1068224090,"title":"Gryon: Les Chaux","city":"Gryon","country_code":"CH","elevation":1760},"geometry":{"coordinates":[7.104657,46.295224,1760],"type":"Point"}},{"type":"Feature","properties":{"id":1068284763,"title":"Ollon VD: Villars-sur-Ollon","city":"Ollon VD","country_code":"CH","elevation":1807},"geometry":{"coordinates":[7.074992,46.322791,1807],"type":"Point"}},{"type":"Feature","properties":{"id":1070189674,"title":"Meyrin: Aéroport","city":"Meyrin","country_code":"CH","elevation":423},"geometry":{"coordinates":[6.101918,46.22575,423],"type":"Point"}},{"type":"Feature","properties":{"id":1070821774,"title":"Oberiberg: Laburgstrasse - Buoffenalp - Ibergeregg, Passhöhe","city":"Oberiberg","country_code":"CH","elevation":1124},"geometry":{"coordinates":[8.786815,47.041209,1124],"type":"Point"}},{"type":"Feature","properties":{"id":1071248178,"title":"Laax: Murschetg","city":"Laax","country_code":"CH","elevation":1106},"geometry":{"coordinates":[9.262775,46.822848,1106],"type":"Point"}},{"type":"Feature","properties":{"id":1073653447,"title":"Tschappina: Berggasthaus Beverin","city":"Tschappina","country_code":"CH","elevation":1886},"geometry":{"coordinates":[9.345763,46.677497,1886],"type":"Point"}},{"type":"Feature","properties":{"id":1074337010,"title":"Meggen: mit Blick auf den See","city":"Meggen","country_code":"CH","elevation":493},"geometry":{"coordinates":[8.375487,47.048575,493],"type":"Point"}},{"type":"Feature","properties":{"id":1074337700,"title":"Schenna - Scena: Dorfzentrum","city":"Schenna - Scena","country_code":"IT","elevation":567},"geometry":{"coordinates":[11.186971,46.690186,567],"type":"Point"}},{"type":"Feature","properties":{"id":1074338828,"title":"Hafling - Avelengo: Wandergebiet Schenna - Meran 2000","city":"Hafling - Avelengo","country_code":"IT","elevation":1918},"geometry":{"coordinates":[11.25515,46.677239,1918],"type":"Point"}},{"type":"Feature","properties":{"id":1074941346,"title":"Kuttigen: Fricktal, Schwarzwald, Feldberg","city":"Kuttigen","country_code":"CH","elevation":674},"geometry":{"coordinates":[8.025341,47.431455,674],"type":"Point"}},{"type":"Feature","properties":{"id":1074941799,"title":"Kuttigen: Staffelegg, Lägern","city":"Kuttigen","country_code":"CH","elevation":674},"geometry":{"coordinates":[8.025169,47.432036,674],"type":"Point"}},{"type":"Feature","properties":{"id":1074941913,"title":"Kuttigen: Aarau, Pilatus, Titlis","city":"Kuttigen","country_code":"CH","elevation":737},"geometry":{"coordinates":[8.024826,47.432036,737],"type":"Point"}},{"type":"Feature","properties":{"id":1074942000,"title":"Kuttigen: Gösgen, Schönenwerd, Mönch","city":"Kuttigen","country_code":"CH","elevation":721},"geometry":{"coordinates":[8.026028,47.431107,721],"type":"Point"}},{"type":"Feature","properties":{"id":1074942072,"title":"Kuttigen: Olten, Bern, La Dôle","city":"Kuttigen","country_code":"CH","elevation":674},"geometry":{"coordinates":[8.025169,47.431919,674],"type":"Point"}},{"type":"Feature","properties":{"id":1075645771,"title":"Lenzerheide: Parpaner Rothorn","city":"Lenzerheide","country_code":"CH","elevation":2825},"geometry":{"coordinates":[9.597502,46.74261,2825],"type":"Point"}},{"type":"Feature","properties":{"id":1075651001,"title":"Bullet: Les Petites Roches - Chasseron","city":"Bullet","country_code":"CH","elevation":1197},"geometry":{"coordinates":[6.547852,46.830251,1197],"type":"Point"}},{"type":"Feature","properties":{"id":1076244529,"title":"Brunni: Alpthal","city":"Brunni","country_code":"CH","elevation":1097},"geometry":{"coordinates":[8.703897,47.042361,1097],"type":"Point"}},{"type":"Feature","properties":{"id":1076513327,"title":"Ilanz: Crap Masegn (Vorab) - Crap Masegn","city":"Ilanz","country_code":"CH","elevation":2466},"geometry":{"coordinates":[9.18018,46.84243,2466],"type":"Point"}},{"type":"Feature","properties":{"id":1077361484,"title":"Fluh: Leimentaler Wetterstation","city":"Fluh","country_code":"CH","elevation":410},"geometry":{"coordinates":[7.496796,47.485193,410],"type":"Point"}},{"type":"Feature","properties":{"id":1080921163,"title":"Kussnacht › South-East: Küssnacht am Rigi - Lake of Lucerne","city":"Kussnacht","country_code":"CH","elevation":448},"geometry":{"coordinates":[8.443052,47.082363,448],"type":"Point"}},{"type":"Feature","properties":{"id":1081111494,"title":"Grimentz: vieux village","city":"Grimentz","country_code":"CH","elevation":1566},"geometry":{"coordinates":[7.576457,46.17992,1566],"type":"Point"}},{"type":"Feature","properties":{"id":1081149461,"title":"Anniviers: Grimentz - départ de la télécabine de Bendolla","city":"Anniviers","country_code":"CH","elevation":2663},"geometry":{"coordinates":[7.595286,46.150435,2663],"type":"Point"}},{"type":"Feature","properties":{"id":1081756841,"title":"Landquart: Chimmispitz - Haldensteiner Calanda - Calandahütte SAC - Calanda","city":"Landquart","country_code":"CH","elevation":529},"geometry":{"coordinates":[9.568077,46.946989,529],"type":"Point"}},{"type":"Feature","properties":{"id":1081757307,"title":"Eriz › West: Unterlangenegg - Fahrni - Uetendorf - Schwarzenegg - Stockhorn - Riggisberg - Gurnigel Pass - Jura - Buchen","city":"Eriz","country_code":"CH","elevation":1119},"geometry":{"coordinates":[7.743511,46.790783,1119],"type":"Point"}},{"type":"Feature","properties":{"id":1084173909,"title":"Thundorf: Lustdorf 360° Panorama","city":"Thundorf","country_code":"CH","elevation":600},"geometry":{"coordinates":[8.987074,47.550058,600],"type":"Point"}},{"type":"Feature","properties":{"id":1084783665,"title":"Altendorf: SZ","city":"Altendorf","country_code":"CH","elevation":697},"geometry":{"coordinates":[8.803568,47.181896,697],"type":"Point"}},{"type":"Feature","properties":{"id":1084784127,"title":"Wetzikon: GZO Spital","city":"Wetzikon","country_code":"CH","elevation":548},"geometry":{"coordinates":[8.801723,47.321458,548],"type":"Point"}},{"type":"Feature","properties":{"id":1087033050,"title":"Verbier: and the Médran ski area","city":"Verbier","country_code":"CH","elevation":1797},"geometry":{"coordinates":[7.223465,46.108445,1797],"type":"Point"}},{"type":"Feature","properties":{"id":1091875657,"title":"Brienz: Dorf Fischerbrunnenplatz","city":"Brienz","country_code":"CH","elevation":569},"geometry":{"coordinates":[8.029,46.754663,569],"type":"Point"}},{"type":"Feature","properties":{"id":1101718592,"title":"Moriken-Wildegg: Wetter in Möriken AG","city":"Moriken-Wildegg","country_code":"CH","elevation":389},"geometry":{"coordinates":[8.179879,47.418317,389],"type":"Point"}},{"type":"Feature","properties":{"id":1105008078,"title":"Mesocco: San Bernardino 2","city":"Mesocco","country_code":"CH","elevation":1620},"geometry":{"coordinates":[9.189849,46.462812,1620],"type":"Point"}},{"type":"Feature","properties":{"id":1105962270,"title":"Torbel: Moosalp","city":"Torbel","country_code":"CH","elevation":2047},"geometry":{"coordinates":[7.829733,46.250787,2047],"type":"Point"}},{"type":"Feature","properties":{"id":1107779273,"title":"Escholzmatt-Marbach: Camping-Sternen, Marbach","city":"Escholzmatt-Marbach","country_code":"CH","elevation":824},"geometry":{"coordinates":[7.909856,46.872778,824],"type":"Point"}},{"type":"Feature","properties":{"id":1108551411,"title":"Mathon › South: Muntogna da Schons - Restaurant muntsulej","city":"Mathon","country_code":"CH","elevation":1544},"geometry":{"coordinates":[9.414253,46.636001,1544],"type":"Point"}},{"type":"Feature","properties":{"id":1108986636,"title":"Rickenbach: Bauer Fritz - Lake Sempach","city":"Rickenbach","country_code":"CH","elevation":792},"geometry":{"coordinates":[8.139496,47.198111,792],"type":"Point"}},{"type":"Feature","properties":{"id":1109590185,"title":"Melchsee-Frutt","city":"Melchsee-Frutt","country_code":"CH","elevation":1916},"geometry":{"coordinates":[8.269739,46.773349,1916],"type":"Point"}},{"type":"Feature","properties":{"id":1109590430,"title":"Wildhaus-Alt St. Johann: Iltios - Chäserrugg","city":"Wildhaus-Alt St. Johann","country_code":"CH","elevation":1346},"geometry":{"coordinates":[9.31175,47.185235,1346],"type":"Point"}},{"type":"Feature","properties":{"id":1110195629,"title":"Albstadt: Tailfingen Skilift und Bikepark","city":"Albstadt","country_code":"DE","elevation":843},"geometry":{"coordinates":[9.030876,48.254016,843],"type":"Point"}},{"type":"Feature","properties":{"id":1110364842,"title":"Delemont","city":"Delemont","country_code":"CH","elevation":413},"geometry":{"coordinates":[7.349773,47.362224,413],"type":"Point"}},{"type":"Feature","properties":{"id":1112092027,"title":"Thun: Innenstadt - Blick auf das Schloss","city":"Thun","country_code":"CH","elevation":564},"geometry":{"coordinates":[7.629922,46.757708,564],"type":"Point"}},{"type":"Feature","properties":{"id":1112092231,"title":"Carouge › North","city":"Carouge","country_code":"CH","elevation":392},"geometry":{"coordinates":[6.137753,46.182505,392],"type":"Point"}},{"type":"Feature","properties":{"id":1113821046,"title":"Stein: Toggenburg Alpakas","city":"Stein","country_code":"CH","elevation":861},"geometry":{"coordinates":[9.223709,47.196711,861],"type":"Point"}},{"type":"Feature","properties":{"id":1115031497,"title":"Matt: Weissenberge 2","city":"Matt","country_code":"CH","elevation":1245},"geometry":{"coordinates":[9.184999,46.964205,1245],"type":"Point"}},{"type":"Feature","properties":{"id":1116324674,"title":"Wohlen bei Bern › North: Ittigen","city":"Wohlen bei Bern","country_code":"CH","elevation":625},"geometry":{"coordinates":[7.339833,46.993536,625],"type":"Point"}},{"type":"Feature","properties":{"id":1116849865,"title":"Unterageri: Aegeriwetter","city":"Unterageri","country_code":"CH","elevation":735},"geometry":{"coordinates":[8.584238,47.131542,735],"type":"Point"}},{"type":"Feature","properties":{"id":1119270291,"title":"Lucerne: Kapellbrücke","city":"Lucerne","country_code":"CH","elevation":432},"geometry":{"coordinates":[8.308437,47.050893,432],"type":"Point"}},{"type":"Feature","properties":{"id":1119876438,"title":"Le Locle: UNESCO Urbanisme horloger","city":"Le Locle","country_code":"CH","elevation":924},"geometry":{"coordinates":[6.741486,47.055154,924],"type":"Point"}},{"type":"Feature","properties":{"id":1119877026,"title":"Frauenfeld: Stadt - 360° Panorama","city":"Frauenfeld","country_code":"CH","elevation":399},"geometry":{"coordinates":[8.895493,47.558921,399],"type":"Point"}},{"type":"Feature","properties":{"id":1121081685,"title":"La Brevine: Lac des Taillères","city":"La Brevine","country_code":"CH","elevation":1041},"geometry":{"coordinates":[6.58622,46.971034,1041],"type":"Point"}},{"type":"Feature","properties":{"id":1121084333,"title":"La Neuveville: Lake Biel","city":"La Neuveville","country_code":"CH","elevation":441},"geometry":{"coordinates":[7.092222,47.063706,441],"type":"Point"}},{"type":"Feature","properties":{"id":1123494977,"title":"Rutteldorf: Wetterbilder Todtnauberg","city":"Rutteldorf","country_code":"DE","elevation":1060},"geometry":{"coordinates":[7.949247,47.856258,1060],"type":"Point"}},{"type":"Feature","properties":{"id":1124709158,"title":"Interlaken: Schynige Platte - Jungfrau","city":"Interlaken","country_code":"CH","elevation":571},"geometry":{"coordinates":[7.861716,46.684357,571],"type":"Point"}},{"type":"Feature","properties":{"id":1125318045,"title":"Surses: Berghuus Radons","city":"Surses","country_code":"CH","elevation":1867},"geometry":{"coordinates":[9.553299,46.55886,1867],"type":"Point"}},{"type":"Feature","properties":{"id":1126539413,"title":"Beatenberg: Chalet Birkli","city":"Beatenberg","country_code":"CH","elevation":1188},"geometry":{"coordinates":[7.79834,46.700392,1188],"type":"Point"}},{"type":"Feature","properties":{"id":1127131777,"title":"Sankt Moritz: Suvretta House","city":"Sankt Moritz","country_code":"CH","elevation":1888},"geometry":{"coordinates":[9.819825,46.484535,1888],"type":"Point"}},{"type":"Feature","properties":{"id":1128616381,"title":"Munchwilen: Münchwilen TG","city":"Munchwilen","country_code":"CH","elevation":508},"geometry":{"coordinates":[8.988619,47.482431,508],"type":"Point"}},{"type":"Feature","properties":{"id":1128945916,"title":"Binn: Binntal - Imfeld","city":"Binn","country_code":"CH","elevation":1537},"geometry":{"coordinates":[8.214211,46.369171,1537],"type":"Point"}},{"type":"Feature","properties":{"id":1129550101,"title":"Lupfig: Flugplatz Birrfeld Ost","city":"Lupfig","country_code":"CH","elevation":393},"geometry":{"coordinates":[8.229937,47.443921,393],"type":"Point"}},{"type":"Feature","properties":{"id":1129550301,"title":"Lupfig: Flugplatz Birrfeld West","city":"Lupfig","country_code":"CH","elevation":393},"geometry":{"coordinates":[8.22984,47.443892,393],"type":"Point"}},{"type":"Feature","properties":{"id":1129551152,"title":"Schenna - Scena: Taser-Schennaberg","city":"Schenna - Scena","country_code":"IT","elevation":841},"geometry":{"coordinates":[11.203308,46.698435,841],"type":"Point"}},{"type":"Feature","properties":{"id":1131368730,"title":"Adelboden: Engstligenalp - Wildstrubel","city":"Adelboden","country_code":"CH","elevation":1302},"geometry":{"coordinates":[7.567155,46.484521,1302],"type":"Point"}},{"type":"Feature","properties":{"id":1131369265,"title":"Interlaken: Niederhorn - Chill Out Paragliding World","city":"Interlaken","country_code":"CH","elevation":571},"geometry":{"coordinates":[7.861533,46.684476,571],"type":"Point"}},{"type":"Feature","properties":{"id":1132573715,"title":"Binn: Schmidigehischre - Lengtal","city":"Binn","country_code":"CH","elevation":1476},"geometry":{"coordinates":[8.184493,46.364707,1476],"type":"Point"}},{"type":"Feature","properties":{"id":1133187026,"title":"Furtig: Schwarzenberg Arnen","city":"Furtig","country_code":"CH","elevation":889},"geometry":{"coordinates":[8.161213,47.012521,889],"type":"Point"}},{"type":"Feature","properties":{"id":1133188162,"title":"Schnann: Arlberg - Gasthof Traube","city":"Schnann","country_code":"AT","elevation":1172},"geometry":{"coordinates":[10.38002,47.152019,1172],"type":"Point"}},{"type":"Feature","properties":{"id":1133188503,"title":"Davos: 180° Panorama mit Jakobshorn","city":"Davos","country_code":"CH","elevation":1615},"geometry":{"coordinates":[9.821786,46.798378,1615],"type":"Point"}},{"type":"Feature","properties":{"id":1135004394,"title":"Menzenschwand Hinterdorf: Breitnau","city":"Menzenschwand Hinterdorf","country_code":"DE","elevation":1037},"geometry":{"coordinates":[8.057989,47.9376,1037],"type":"Point"}},{"type":"Feature","properties":{"id":1135005867,"title":"La Chaux-de-Fonds: Le Pod","city":"La Chaux-de-Fonds","country_code":"CH","elevation":1004},"geometry":{"coordinates":[6.827145,47.106004,1004],"type":"Point"}},{"type":"Feature","properties":{"id":1135850617,"title":"Lauchernalp: Hockenhorngrat","city":"Lauchernalp","country_code":"CH","elevation":3054},"geometry":{"coordinates":[7.74785,46.429742,3054],"type":"Point"}},{"type":"Feature","properties":{"id":1136217735,"title":"Leukerbad: Gemmi Pass","city":"Leukerbad","country_code":"CH","elevation":2261},"geometry":{"coordinates":[7.616272,46.397502,2261],"type":"Point"}},{"type":"Feature","properties":{"id":1136218125,"title":"Visperterminen › East: Giw","city":"Visperterminen","country_code":"CH","elevation":1968},"geometry":{"coordinates":[7.9232,46.255493,1968],"type":"Point"}},{"type":"Feature","properties":{"id":1136369394,"title":"Eschenbach: Berggasthaus Chrüzegg","city":"Eschenbach","country_code":"CH","elevation":1250},"geometry":{"coordinates":[9.014668,47.298601,1250],"type":"Point"}},{"type":"Feature","properties":{"id":1137676008,"title":"Spiez: Bucht","city":"Spiez","country_code":"CH","elevation":611},"geometry":{"coordinates":[7.681911,46.687357,611],"type":"Point"}},{"type":"Feature","properties":{"id":1138021029,"title":"Winterthur: 360° Panorama","city":"Winterthur","country_code":"CH","elevation":444},"geometry":{"coordinates":[8.736191,47.503008,444],"type":"Point"}},{"type":"Feature","properties":{"id":1138022422,"title":"Zaziwil: Wetterstation Oberthal","city":"Zaziwil","country_code":"CH","elevation":690},"geometry":{"coordinates":[7.661934,46.903369,690],"type":"Point"}},{"type":"Feature","properties":{"id":1138022912,"title":"Buchholterberg: Gemeinde","city":"Buchholterberg","country_code":"CH","elevation":887},"geometry":{"coordinates":[7.682405,46.817575,887],"type":"Point"}},{"type":"Feature","properties":{"id":1138629599,"title":"Acquarossa: Nara arrivo seggiovia Alpe di Nara","city":"Acquarossa","country_code":"CH","elevation":1449},"geometry":{"coordinates":[8.898411,46.459974,1449],"type":"Point"}},{"type":"Feature","properties":{"id":1139836151,"title":"Opfikon: Dorfkern","city":"Opfikon","country_code":"CH","elevation":455},"geometry":{"coordinates":[8.577715,47.431912,455],"type":"Point"}},{"type":"Feature","properties":{"id":1139839663,"title":"Stallikon: Hotel UTO KULM Nord","city":"Stallikon","country_code":"CH","elevation":831},"geometry":{"coordinates":[8.491445,47.34964,831],"type":"Point"}},{"type":"Feature","properties":{"id":1141651451,"title":"Arolla: Pigne","city":"Arolla","country_code":"CH","elevation":2106},"geometry":{"coordinates":[7.477355,46.026946,2106],"type":"Point"}},{"type":"Feature","properties":{"id":1141651608,"title":"Arolla: Mont-Collon","city":"Arolla","country_code":"CH","elevation":2106},"geometry":{"coordinates":[7.477269,46.026499,2106],"type":"Point"}},{"type":"Feature","properties":{"id":1142858239,"title":"Dorflingen › West: Hinterdorf","city":"Dorflingen","country_code":"CH","elevation":443},"geometry":{"coordinates":[8.724461,47.704232,443],"type":"Point"}},{"type":"Feature","properties":{"id":1144060865,"title":"Zinal › South: Village","city":"Zinal","country_code":"CH","elevation":1690},"geometry":{"coordinates":[7.627152,46.133723,1690],"type":"Point"}},{"type":"Feature","properties":{"id":1145272593,"title":"Ecuvillens: Aérodrome Régional - Est - Ost","city":"Ecuvillens","country_code":"CH","elevation":700},"geometry":{"coordinates":[7.079272,46.755622,700],"type":"Point"}},{"type":"Feature","properties":{"id":1145273348,"title":"Ecuvillens: Aérodrome Régional - Ouest - West","city":"Ecuvillens","country_code":"CH","elevation":692},"geometry":{"coordinates":[7.071161,46.75524,692],"type":"Point"}},{"type":"Feature","properties":{"id":1146478562,"title":"Widnau: Metropol","city":"Widnau","country_code":"CH","elevation":408},"geometry":{"coordinates":[9.633722,47.405495,408],"type":"Point"}},{"type":"Feature","properties":{"id":1146478726,"title":"Wald: b&m Informatik GmbH - AR: Sicht auf die Kirche von - AR","city":"Wald","country_code":"CH","elevation":968},"geometry":{"coordinates":[9.490825,47.415761,968],"type":"Point"}},{"type":"Feature","properties":{"id":1146478867,"title":"Seedorf: Hafenanlage Bolzbach","city":"Seedorf","country_code":"CH","elevation":473},"geometry":{"coordinates":[8.593369,46.899088,473],"type":"Point"}},{"type":"Feature","properties":{"id":1150720064,"title":"Sachseln: Jugendstil-Hotel Paxmontana, Sarner See","city":"Sachseln","country_code":"CH","elevation":710},"geometry":{"coordinates":[8.270591,46.873314,710],"type":"Point"}},{"type":"Feature","properties":{"id":1151926646,"title":"Todtnau › North-West: Hasenhorn - Aftersteg - Todtnauberg - Muggenbrunn - Notschrei","city":"Todtnau","country_code":"DE","elevation":981},"geometry":{"coordinates":[7.951202,47.821178,981],"type":"Point"}},{"type":"Feature","properties":{"id":1151927998,"title":"Boltigen: Jaunpass","city":"Boltigen","country_code":"CH","elevation":1518},"geometry":{"coordinates":[7.339039,46.592608,1518],"type":"Point"}},{"type":"Feature","properties":{"id":1154342436,"title":"Lausanne › South-East: Centre","city":"Lausanne","country_code":"CH","elevation":548},"geometry":{"coordinates":[6.631472,46.526118,548],"type":"Point"}},{"type":"Feature","properties":{"id":1155561911,"title":"Johannisburg: Hütten - Hüttnersee - Samstagern - Etzel","city":"Johannisburg","country_code":"CH","elevation":675},"geometry":{"coordinates":[8.664203,47.182493,675],"type":"Point"}},{"type":"Feature","properties":{"id":1155564740,"title":"Mels: Der Gonzen bei","city":"Mels","country_code":"CH","elevation":495},"geometry":{"coordinates":[9.42318,47.04556,495],"type":"Point"}},{"type":"Feature","properties":{"id":1162819576,"title":"Oberstdorf: Panorama 2","city":"Oberstdorf","country_code":"DE","elevation":795},"geometry":{"coordinates":[10.276624,47.416952,795],"type":"Point"}},{"type":"Feature","properties":{"id":1164028525,"title":"Furna: Fideris","city":"Furna","country_code":"CH","elevation":1448},"geometry":{"coordinates":[9.675522,46.938543,1448],"type":"Point"}},{"type":"Feature","properties":{"id":1164634878,"title":"Hinwil: Panoramaloipe Gibswil","city":"Hinwil","country_code":"CH","elevation":898},"geometry":{"coordinates":[8.896093,47.305019,898],"type":"Point"}},{"type":"Feature","properties":{"id":1167997331,"title":"Oberstdorf: Ortsmitte, Kurpark","city":"Oberstdorf","country_code":"DE","elevation":817},"geometry":{"coordinates":[10.277157,47.405995,817],"type":"Point"}},{"type":"Feature","properties":{"id":1170074081,"title":"Leissigen: Hotel Meielisalp in - am Thunersee","city":"Leissigen","country_code":"CH","elevation":809},"geometry":{"coordinates":[7.788448,46.65085,809],"type":"Point"}},{"type":"Feature","properties":{"id":1170074478,"title":"Saint-Cergue: La Trélasse - Col de la Givrine - Jura vaudois Natural Regional Park","city":"Saint-Cergue","country_code":"CH","elevation":1217},"geometry":{"coordinates":[6.110319,46.455214,1217],"type":"Point"}},{"type":"Feature","properties":{"id":1170682215,"title":"Gstaad: Promenade","city":"Gstaad","country_code":"CH","elevation":1054},"geometry":{"coordinates":[7.286524,46.474,1054],"type":"Point"}},{"type":"Feature","properties":{"id":1170682501,"title":"Schonried: Horneggli","city":"Schonried","country_code":"CH","elevation":1235},"geometry":{"coordinates":[7.293337,46.50353,1235],"type":"Point"}},{"type":"Feature","properties":{"id":1171283304,"title":"Dittingen: Flugplatz - Cam 3","city":"Dittingen","country_code":"CH","elevation":536},"geometry":{"coordinates":[7.490863,47.4384,536],"type":"Point"}},{"type":"Feature","properties":{"id":1171308030,"title":"Memmingen: Rathausplatz & Altstadt","city":"Memmingen","country_code":"DE","elevation":602},"geometry":{"coordinates":[10.179546,47.985929,602],"type":"Point"}},{"type":"Feature","properties":{"id":1171889224,"title":"La Chaux-de-Fonds: LSGC Les Eplatures Airport","city":"La Chaux-de-Fonds","country_code":"CH","elevation":1014},"geometry":{"coordinates":[6.796374,47.085042,1014],"type":"Point"}},{"type":"Feature","properties":{"id":1171889392,"title":"Dottingen: Panorama Unteres Aaretal","city":"Dottingen","country_code":"CH","elevation":358},"geometry":{"coordinates":[8.256623,47.565567,358],"type":"Point"}},{"type":"Feature","properties":{"id":1175255635,"title":"Wil","city":"Wil","country_code":"CH","elevation":714},"geometry":{"coordinates":[9.049473,47.478653,714],"type":"Point"}},{"type":"Feature","properties":{"id":1176801270,"title":"Risch-Rotkreuz: Live Webcam Rotkreuz Richtung Süd-Ost","city":"Risch-Rotkreuz","country_code":"CH","elevation":434},"geometry":{"coordinates":[8.423971,47.139475,434],"type":"Point"}},{"type":"Feature","properties":{"id":1177877762,"title":"Martigny: vue sur le catogne","city":"Martigny","country_code":"CH","elevation":792},"geometry":{"coordinates":[7.056549,46.100093,792],"type":"Point"}},{"type":"Feature","properties":{"id":1181289389,"title":"Lenzerheide: Wassersportcenter SSCLV, Heidsee - Valbella","city":"Lenzerheide","country_code":"CH","elevation":1492},"geometry":{"coordinates":[9.549512,46.737004,1492],"type":"Point"}},{"type":"Feature","properties":{"id":1181723591,"title":"Oberstdorf › South: Fideliushaus","city":"Oberstdorf","country_code":"DE","elevation":818},"geometry":{"coordinates":[10.279684,47.401109,818],"type":"Point"}},{"type":"Feature","properties":{"id":1181920571,"title":"Bad Gastein","city":"Bad Gastein","country_code":"AT","elevation":1228},"geometry":{"coordinates":[13.127203,47.115117,1228],"type":"Point"}},{"type":"Feature","properties":{"id":1181921392,"title":"Grosspetersdorf","city":"Grosspetersdorf","country_code":"AT","elevation":309},"geometry":{"coordinates":[16.32019,47.237637,309],"type":"Point"}},{"type":"Feature","properties":{"id":1181921763,"title":"Presseggersee: Seabath - Seebad","city":"Presseggersee","country_code":"AT","elevation":560},"geometry":{"coordinates":[13.444176,46.627396,560],"type":"Point"}},{"type":"Feature","properties":{"id":1181926814,"title":"Arriach","city":"Arriach","country_code":"AT","elevation":852},"geometry":{"coordinates":[13.849983,46.728801,852],"type":"Point"}},{"type":"Feature","properties":{"id":1181928047,"title":"Lahn: Hallstatt Panorama","city":"Lahn","country_code":"AT","elevation":508},"geometry":{"coordinates":[13.660898,47.54664,508],"type":"Point"}},{"type":"Feature","properties":{"id":1181929163,"title":"Bischofshofen: Berg","city":"Bischofshofen","country_code":"AT","elevation":740},"geometry":{"coordinates":[13.238832,47.421101,740],"type":"Point"}},{"type":"Feature","properties":{"id":1181987921,"title":"Stadt Kufstein: Kufstein 2","city":"Stadt Kufstein","country_code":"AT","elevation":506},"geometry":{"coordinates":[12.169418,47.582431,506],"type":"Point"}},{"type":"Feature","properties":{"id":1181988297,"title":"Gemeinde Tannheim: Tannheim 3","city":"Gemeinde Tannheim","country_code":"AT","elevation":1091},"geometry":{"coordinates":[10.506406,47.50004,1091],"type":"Point"}},{"type":"Feature","properties":{"id":1182076970,"title":"Gemeinde Fontanella: Hahnenkopf","city":"Gemeinde Fontanella","country_code":"AT","elevation":1762},"geometry":{"coordinates":[9.898532,47.271877,1762],"type":"Point"}},{"type":"Feature","properties":{"id":1182078679,"title":"Oberhofen am Irrsee: Oberhofen - Irrsee","city":"Oberhofen am Irrsee","country_code":"AT","elevation":580},"geometry":{"coordinates":[13.305645,47.95303,580],"type":"Point"}},{"type":"Feature","properties":{"id":1182083160,"title":"Grundlsee","city":"Grundlsee","country_code":"AT","elevation":737},"geometry":{"coordinates":[13.829126,47.62005,737],"type":"Point"}},{"type":"Feature","properties":{"id":1182083529,"title":"Gemeinde Brand: Brand","city":"Gemeinde Brand","country_code":"AT","elevation":1949},"geometry":{"coordinates":[9.754341,47.059518,1949],"type":"Point"}},{"type":"Feature","properties":{"id":1182083867,"title":"Gemeinde Mittelberg: Fellhorn I, Fellhornbahn-Station Schlappoldsee, Oberstdorf","city":"Gemeinde Mittelberg","country_code":"AT","elevation":1768},"geometry":{"coordinates":[10.22604,47.349117,1768],"type":"Point"}},{"type":"Feature","properties":{"id":1182089840,"title":"Gemeinde Schwarzenberg › East: Bödele Passhöhe - Hotel Berghof Fetz - Bödelestraße - Niedere - Kanisfluh - Diedamskopf - Großer Widderstein","city":"Gemeinde Schwarzenberg","country_code":"AT","elevation":1147},"geometry":{"coordinates":[9.809154,47.423287,1147],"type":"Point"}},{"type":"Feature","properties":{"id":1182187327,"title":"Gstatt: Bad Hofgastein","city":"Gstatt","country_code":"AT","elevation":844},"geometry":{"coordinates":[13.092459,47.177325,844],"type":"Point"}},{"type":"Feature","properties":{"id":1182425060,"title":"Ramsau am Dachstein","city":"Ramsau am Dachstein","country_code":"AT","elevation":1126},"geometry":{"coordinates":[13.654976,47.421816,1126],"type":"Point"}},{"type":"Feature","properties":{"id":1182426013,"title":"Marktgemeinde St. Johann in Tirol › South: Kitzbüheler Horn","city":"Marktgemeinde St. Johann in Tirol","country_code":"AT","elevation":659},"geometry":{"coordinates":[12.421001,47.523368,659],"type":"Point"}},{"type":"Feature","properties":{"id":1182426995,"title":"Ternberg › East: Hohe Dirn","city":"Ternberg","country_code":"AT","elevation":1109},"geometry":{"coordinates":[14.39505,47.91136,1109],"type":"Point"}},{"type":"Feature","properties":{"id":1182616348,"title":"Gemeinde Silbertal: Panoramagasthof Kristberg","city":"Gemeinde Silbertal","country_code":"AT","elevation":1427},"geometry":{"coordinates":[9.983395,47.10752,1427],"type":"Point"}},{"type":"Feature","properties":{"id":1182794655,"title":"Pertisau: Achensee","city":"Pertisau","country_code":"AT","elevation":1456},"geometry":{"coordinates":[11.694989,47.427507,1456],"type":"Point"}},{"type":"Feature","properties":{"id":1182883947,"title":"Gemeinde Ehrwald: Ehrwalder Wettersteinbahnen - Racing-S-Wettersteinabfahrt-Bärengrubenabfahrt","city":"Gemeinde Ehrwald","country_code":"AT","elevation":1496},"geometry":{"coordinates":[10.948546,47.406944,1496],"type":"Point"}},{"type":"Feature","properties":{"id":1182962264,"title":"Gemeinde Nesselwangle: Nesselwängle - Talstation","city":"Gemeinde Nesselwangle","country_code":"AT","elevation":1130},"geometry":{"coordinates":[10.60936,47.484265,1130],"type":"Point"}},{"type":"Feature","properties":{"id":1182962948,"title":"Obertauern: Gamsleiten","city":"Obertauern","country_code":"AT","elevation":1694},"geometry":{"coordinates":[13.565025,47.246144,1694],"type":"Point"}},{"type":"Feature","properties":{"id":1182962973,"title":"Obertauern: Seekar","city":"Obertauern","country_code":"AT","elevation":1655},"geometry":{"coordinates":[13.527946,47.251504,1655],"type":"Point"}},{"type":"Feature","properties":{"id":1182962993,"title":"Obertauern: Zehnerkar","city":"Obertauern","country_code":"AT","elevation":1745},"geometry":{"coordinates":[13.556442,47.248009,1745],"type":"Point"}},{"type":"Feature","properties":{"id":1182970669,"title":"Gemeinde Solden: Seekogl","city":"Gemeinde Solden","country_code":"AT","elevation":1429},"geometry":{"coordinates":[11.005726,46.966079,1429],"type":"Point"}},{"type":"Feature","properties":{"id":1183197419,"title":"St. Barbara im Murztal: Webcam Dorf-Veitsch","city":"St. Barbara im Murztal","country_code":"AT","elevation":664},"geometry":{"coordinates":[15.494263,47.578551,664],"type":"Point"}},{"type":"Feature","properties":{"id":1183200653,"title":"Berg im Drautal: Hotel Glocknerhof","city":"Berg im Drautal","country_code":"AT","elevation":668},"geometry":{"coordinates":[13.145678,46.748786,668],"type":"Point"}},{"type":"Feature","properties":{"id":1183201702,"title":"Velden am Worther See: Wörthersee 2","city":"Velden am Worther See","country_code":"AT","elevation":441},"geometry":{"coordinates":[14.051014,46.61588,441],"type":"Point"}},{"type":"Feature","properties":{"id":1184334943,"title":"Stadt Hall in Tirol: Hall in Tirol","city":"Stadt Hall in Tirol","country_code":"AT","elevation":583},"geometry":{"coordinates":[11.509863,47.281398,583],"type":"Point"}},{"type":"Feature","properties":{"id":1184405183,"title":"Fürstenfeldbruck: Fürstenfeld Abbey","city":"Fürstenfeldbruck","country_code":"DE","elevation":520},"geometry":{"coordinates":[11.247042,48.170295,520],"type":"Point"}},{"type":"Feature","properties":{"id":1184590102,"title":"Gemeinde Lech: Lech am Arlberg - Rud-Alpe","city":"Gemeinde Lech","country_code":"AT","elevation":1573},"geometry":{"coordinates":[10.134244,47.210816,1573],"type":"Point"}},{"type":"Feature","properties":{"id":1184590191,"title":"Gemeinde Lech: Lech am Arlberg - Sporthaus Strolz","city":"Gemeinde Lech","country_code":"AT","elevation":1449},"geometry":{"coordinates":[10.142066,47.208459,1449],"type":"Point"}},{"type":"Feature","properties":{"id":1184843943,"title":"Gmunden","city":"Gmunden","country_code":"AT","elevation":433},"geometry":{"coordinates":[13.799451,47.918378,433],"type":"Point"}},{"type":"Feature","properties":{"id":1185127903,"title":"Untertauern: Obertauern Gnadenalm 2","city":"Untertauern","country_code":"AT","elevation":1276},"geometry":{"coordinates":[13.49782,47.267756,1276],"type":"Point"}},{"type":"Feature","properties":{"id":1185128577,"title":"Untertauern: Obertauern Wellnesshotel Lürzerhof","city":"Untertauern","country_code":"AT","elevation":1006},"geometry":{"coordinates":[13.507218,47.302836,1006],"type":"Point"}},{"type":"Feature","properties":{"id":1185184775,"title":"Feldberg: Emmendinger Hütte","city":"Feldberg","country_code":"DE","elevation":1279},"geometry":{"coordinates":[8.027924,47.853124,1279],"type":"Point"}},{"type":"Feature","properties":{"id":1185185017,"title":"Feldberg: Seebuck-Talstation","city":"Feldberg","country_code":"DE","elevation":1279},"geometry":{"coordinates":[8.036223,47.86236,1279],"type":"Point"}},{"type":"Feature","properties":{"id":1185197816,"title":"Grenchen: Airport Süd-West","city":"Grenchen","country_code":"CH","elevation":430},"geometry":{"coordinates":[7.410911,47.18207,430],"type":"Point"}},{"type":"Feature","properties":{"id":1185268575,"title":"Uberlingen: SMCÜ - Segel- und Motorboot Club Überlingen e.V","city":"Uberlingen","country_code":"DE","elevation":393},"geometry":{"coordinates":[9.181137,47.757932,393],"type":"Point"}},{"type":"Feature","properties":{"id":1185716619,"title":"Villanders - Villandro: Südtirol-Hotel Sambergerhof","city":"Villanders - Villandro","country_code":"IT","elevation":1595},"geometry":{"coordinates":[11.513414,46.640078,1595],"type":"Point"}},{"type":"Feature","properties":{"id":1186150936,"title":"Weyregg am Attersee: Weyregg - Österreich, Ober - Blick vom Cafe Eichhorn auf den Attersee","city":"Weyregg am Attersee","country_code":"AT","elevation":475},"geometry":{"coordinates":[13.571178,47.898321,475],"type":"Point"}},{"type":"Feature","properties":{"id":1187700487,"title":"Titisee-Neustadt: Blick zum Feldberg & Hochfirst","city":"Titisee-Neustadt","country_code":"DE","elevation":1026},"geometry":{"coordinates":[8.238416,47.949007,1026],"type":"Point"}},{"type":"Feature","properties":{"id":1188395281,"title":"Gemeinde Eben am Achensee: Pertisau - Achensee","city":"Gemeinde Eben am Achensee","country_code":"AT","elevation":939},"geometry":{"coordinates":[11.700091,47.438272,939],"type":"Point"}},{"type":"Feature","properties":{"id":1188507764,"title":"Graz: Kunsthaus - Webcam BIX-Medienfassade","city":"Graz","country_code":"AT","elevation":356},"geometry":{"coordinates":[15.433946,47.070823,356],"type":"Point"}},{"type":"Feature","properties":{"id":1188508011,"title":"Graz: mcg, messecentergraz - 'Messehalle A+B","city":"Graz","country_code":"AT","elevation":350},"geometry":{"coordinates":[15.447636,47.056762,350],"type":"Point"}},{"type":"Feature","properties":{"id":1188508091,"title":"Graz: Südtirolerplatz - Feuerbachgasse - Defreggergasse","city":"Graz","country_code":"AT","elevation":357},"geometry":{"coordinates":[15.432647,47.070721,357],"type":"Point"}},{"type":"Feature","properties":{"id":1189067151,"title":"Murren: Hotel Eiger","city":"Murren","country_code":"CH","elevation":1645},"geometry":{"coordinates":[7.896627,46.563832,1645],"type":"Point"}},{"type":"Feature","properties":{"id":1190359830,"title":"Selva - Wolkenstein - Selva di Val Gardena: Plan de Gralba - Selva - Val Gardena/Gröden","city":"Selva - Wolkenstein - Selva di Val Gardena","country_code":"IT","elevation":1784},"geometry":{"coordinates":[11.7717,46.534101,1784],"type":"Point"}},{"type":"Feature","properties":{"id":1190362064,"title":"Urtijei - St. Ulrich in Groden - Ortisei: Val Gardena - Gröden - Südtirol","city":"Urtijei - St. Ulrich in Groden - Ortisei","country_code":"IT","elevation":1273},"geometry":{"coordinates":[11.653962,46.578996,1273],"type":"Point"}},{"type":"Feature","properties":{"id":1190495105,"title":"Gemarkung Oberried › North-West: Schauinslandbahn Bergstation, Freiburg im Breisgau - Freiburg","city":"Gemarkung Oberried","country_code":"DE","elevation":1188},"geometry":{"coordinates":[7.891316,47.909734,1188],"type":"Point"}},{"type":"Feature","properties":{"id":1191705493,"title":"Sankt Peter: Kandel - Kaibenloch","city":"Sankt Peter","country_code":"DE","elevation":1182},"geometry":{"coordinates":[8.018154,48.062718,1182],"type":"Point"}},{"type":"Feature","properties":{"id":1191708686,"title":"Gemeinde Klosterle: Spullersee","city":"Gemeinde Klosterle","country_code":"AT","elevation":1802},"geometry":{"coordinates":[10.079511,47.151755,1802],"type":"Point"}},{"type":"Feature","properties":{"id":1195082342,"title":"Bivio: Residenza Plaz - Sicht von der Residenza Plaz auf","city":"Bivio","country_code":"CH","elevation":1800},"geometry":{"coordinates":[9.652348,46.469256,1800],"type":"Point"}},{"type":"Feature","properties":{"id":1196582275,"title":"Ernen: Mühlebach","city":"Ernen","country_code":"CH","elevation":1241},"geometry":{"coordinates":[8.158207,46.408082,1241],"type":"Point"}},{"type":"Feature","properties":{"id":1197885308,"title":"Savines-le-Lac: Lac de Serre-Poncon","city":"Savines-le-Lac","country_code":"FR","elevation":806},"geometry":{"coordinates":[6.401253,44.523682,806],"type":"Point"}},{"type":"Feature","properties":{"id":1198318230,"title":"Capriasca: Valcolla","city":"Capriasca","country_code":"CH","elevation":648},"geometry":{"coordinates":[8.977037,46.069435,648],"type":"Point"}},{"type":"Feature","properties":{"id":1198320467,"title":"Pugerna: Lake Lugano - Lugano","city":"Pugerna","country_code":"CH","elevation":402},"geometry":{"coordinates":[8.978443,45.97933,402],"type":"Point"}},{"type":"Feature","properties":{"id":1199286252,"title":"Ottobeuren: Marktplatz","city":"Ottobeuren","country_code":"DE","elevation":663},"geometry":{"coordinates":[10.299983,47.941331,663],"type":"Point"}},{"type":"Feature","properties":{"id":1199465082,"title":"Selva - Wolkenstein - Selva di Val Gardena","city":"Selva - Wolkenstein - Selva di Val Gardena","country_code":"IT","elevation":1801},"geometry":{"coordinates":[11.743158,46.563374,1801],"type":"Point"}},{"type":"Feature","properties":{"id":1199471925,"title":"Santa Cristina Gherdeina - St. Christina in Groden - Santa Cristina Valgardena: St. Christina/S. Cristina - Val Gardena/Gröden","city":"Santa Cristina Gherdeina - St. Christina in Groden - Santa Cristina Valgardena","country_code":"IT","elevation":1442},"geometry":{"coordinates":[11.728742,46.559657,1442],"type":"Point"}},{"type":"Feature","properties":{"id":1199472066,"title":"Urtijei - St. Ulrich in Groden - Ortisei","city":"Urtijei - St. Ulrich in Groden - Ortisei","country_code":"IT","elevation":1263},"geometry":{"coordinates":[11.674154,46.575058,1263],"type":"Point"}},{"type":"Feature","properties":{"id":1199631916,"title":"Veysonnaz: Caboulis, vue sur la Vallée du Rhône","city":"Veysonnaz","country_code":"CH","elevation":1508},"geometry":{"coordinates":[7.345927,46.193275,1508],"type":"Point"}},{"type":"Feature","properties":{"id":1199636388,"title":"Valtournenche: Breuil","city":"Valtournenche","country_code":"IT","elevation":2111},"geometry":{"coordinates":[7.623138,45.916193,2111],"type":"Point"}},{"type":"Feature","properties":{"id":1199636461,"title":"Lignano Sabbiadoro: Nus - St. Barthélemy","city":"Lignano Sabbiadoro","country_code":"IT","elevation":1966},"geometry":{"coordinates":[7.496452,45.804683,1966],"type":"Point"}},{"type":"Feature","properties":{"id":1199636520,"title":"Torgnon","city":"Torgnon","country_code":"IT","elevation":1551},"geometry":{"coordinates":[7.570095,45.807743,1551],"type":"Point"}},{"type":"Feature","properties":{"id":1199636552,"title":"Valtournenche","city":"Valtournenche","country_code":"IT","elevation":1488},"geometry":{"coordinates":[7.622795,45.876744,1488],"type":"Point"}},{"type":"Feature","properties":{"id":1199637212,"title":"Frabosa Soprana","city":"Frabosa Soprana","country_code":"IT","elevation":896},"geometry":{"coordinates":[7.806816,44.287978,896],"type":"Point"}},{"type":"Feature","properties":{"id":1199703652,"title":"Muntelier › North-West: Lake Murten","city":"Muntelier","country_code":"CH","elevation":424},"geometry":{"coordinates":[7.120407,46.933766,424],"type":"Point"}},{"type":"Feature","properties":{"id":1199725954,"title":"Vigo di Fassa: Passo Fedaia - Fedaia Lake - Marmolada - Ciampedie - Vigo Di Fassa - Rosengarten Group - Gran Vernel","city":"Vigo di Fassa","country_code":"IT","elevation":2330},"geometry":{"coordinates":[11.801875,46.474741,2330],"type":"Point"}},{"type":"Feature","properties":{"id":1199726680,"title":"Falcade: Col Margherita","city":"Falcade","country_code":"IT","elevation":1179},"geometry":{"coordinates":[11.863346,46.353681,1179],"type":"Point"}},{"type":"Feature","properties":{"id":1199727007,"title":"Forni di Sopra","city":"Forni di Sopra","country_code":"IT","elevation":895},"geometry":{"coordinates":[12.579861,46.424724,895],"type":"Point"}},{"type":"Feature","properties":{"id":1199727163,"title":"Forni di Sopra: centro","city":"Forni di Sopra","country_code":"IT","elevation":898},"geometry":{"coordinates":[12.582092,46.423896,898],"type":"Point"}},{"type":"Feature","properties":{"id":1199727221,"title":"Bovec: Sella Prevala","city":"Bovec","country_code":"SI","elevation":2050},"geometry":{"coordinates":[13.480717,46.366927,2050],"type":"Point"}},{"type":"Feature","properties":{"id":1199736353,"title":"Livigno: Webcam - Teola","city":"Livigno","country_code":"IT","elevation":1907},"geometry":{"coordinates":[10.136111,46.528052,1907],"type":"Point"}},{"type":"Feature","properties":{"id":1199736489,"title":"Livigno: piste 2","city":"Livigno","country_code":"IT","elevation":2020},"geometry":{"coordinates":[10.117893,46.522966,2020],"type":"Point"}},{"type":"Feature","properties":{"id":1199737029,"title":"Livigno: Piste","city":"Livigno","country_code":"IT","elevation":1811},"geometry":{"coordinates":[10.141239,46.545166,1811],"type":"Point"}},{"type":"Feature","properties":{"id":1199739289,"title":"Oltre il Colle › West: Zambla Bassa - Oltre Il Colle - Zorzone","city":"Oltre il Colle","country_code":"IT","elevation":1192},"geometry":{"coordinates":[9.795827,45.893543,1192],"type":"Point"}},{"type":"Feature","properties":{"id":1199783414,"title":"Gstaad: Palace","city":"Gstaad","country_code":"CH","elevation":1105},"geometry":{"coordinates":[7.289729,46.473187,1105],"type":"Point"}},{"type":"Feature","properties":{"id":1199784524,"title":"Moleson: Plan Francey","city":"Moleson","country_code":"CH","elevation":1508},"geometry":{"coordinates":[7.023954,46.556455,1508],"type":"Point"}},{"type":"Feature","properties":{"id":1199784692,"title":"Moleson: Sommet","city":"Moleson","country_code":"CH","elevation":1967},"geometry":{"coordinates":[7.017968,46.546989,1967],"type":"Point"}},{"type":"Feature","properties":{"id":1199784977,"title":"Moleson: Village","city":"Moleson","country_code":"CH","elevation":1119},"geometry":{"coordinates":[7.036078,46.563065,1119],"type":"Point"}},{"type":"Feature","properties":{"id":1199785856,"title":"Jaun: Live Blick auf das Wander- und Skigebiet - mit dem Gastlosenexpress","city":"Jaun","country_code":"CH","elevation":1078},"geometry":{"coordinates":[7.292122,46.611464,1078],"type":"Point"}},{"type":"Feature","properties":{"id":1199786121,"title":"Plaffeien: Schwarzsee im Kanton","city":"Plaffeien","country_code":"CH","elevation":1050},"geometry":{"coordinates":[7.287852,46.66924,1050],"type":"Point"}},{"type":"Feature","properties":{"id":1199786186,"title":"Jaun: Kaiseregg im Schwarzsee","city":"Jaun","country_code":"CH","elevation":1450},"geometry":{"coordinates":[7.293874,46.658538,1450],"type":"Point"}},{"type":"Feature","properties":{"id":1199811153,"title":"Altino: La Villa 2","city":"Altino","country_code":"IT","elevation":1427},"geometry":{"coordinates":[11.903687,46.582934,1427],"type":"Point"}},{"type":"Feature","properties":{"id":1199812053,"title":"Urtijei - St. Ulrich in Groden - Ortisei: Val Gardena Dolomiti - St.Ulrich Gröden Dolomiten - Dolomites","city":"Urtijei - St. Ulrich in Groden - Ortisei","country_code":"IT","elevation":1219},"geometry":{"coordinates":[11.673789,46.573849,1219],"type":"Point"}},{"type":"Feature","properties":{"id":1199812278,"title":"Kastelruth - Castelrotto › South: Schlern","city":"Kastelruth - Castelrotto","country_code":"IT","elevation":1889},"geometry":{"coordinates":[11.643116,46.547734,1889],"type":"Point"}},{"type":"Feature","properties":{"id":1199812670,"title":"Pozza di Fassa","city":"Pozza di Fassa","country_code":"IT","elevation":1296},"geometry":{"coordinates":[11.683359,46.425153,1296],"type":"Point"}},{"type":"Feature","properties":{"id":1199814128,"title":"Vigo di Fassa: Vigo Rosengarten","city":"Vigo di Fassa","country_code":"IT","elevation":1384},"geometry":{"coordinates":[11.675892,46.421093,1384],"type":"Point"}},{"type":"Feature","properties":{"id":1199814173,"title":"Vigo di Fassa: Vigo Pra Martin","city":"Vigo di Fassa","country_code":"IT","elevation":1367},"geometry":{"coordinates":[11.67572,46.419549,1367],"type":"Point"}},{"type":"Feature","properties":{"id":1199814228,"title":"Vigo Rendena: Funivia Vigo Ciampedie","city":"Vigo Rendena","country_code":"IT","elevation":1990},"geometry":{"coordinates":[11.664421,46.433682,1990],"type":"Point"}},{"type":"Feature","properties":{"id":1199814416,"title":"Moena: Alpe Lusia - Le Cune m. 2202","city":"Moena","country_code":"IT","elevation":2154},"geometry":{"coordinates":[11.693079,46.346374,2154],"type":"Point"}},{"type":"Feature","properties":{"id":1199814456,"title":"Moena: Lusia Piavac","city":"Moena","country_code":"IT","elevation":2154},"geometry":{"coordinates":[11.692941,46.346259,2154],"type":"Point"}},{"type":"Feature","properties":{"id":1199814493,"title":"Bellamonte: Lusia intermedia","city":"Bellamonte","country_code":"IT","elevation":1971},"geometry":{"coordinates":[11.699066,46.337862,1971],"type":"Point"}},{"type":"Feature","properties":{"id":1199818455,"title":"Schenna - Scena: Südtirol Webcam - Dorfzentrum","city":"Schenna - Scena","country_code":"IT","elevation":567},"geometry":{"coordinates":[11.187258,46.689994,567],"type":"Point"}},{"type":"Feature","properties":{"id":1199819075,"title":"San Martino di Castrozza: Pale San Martino","city":"San Martino di Castrozza","country_code":"IT","elevation":1461},"geometry":{"coordinates":[11.80275,46.260594,1461],"type":"Point"}},{"type":"Feature","properties":{"id":1199819217,"title":"Primiero San Martino di Castrozza: Tognola","city":"Primiero San Martino di Castrozza","country_code":"IT","elevation":1898},"geometry":{"coordinates":[11.776357,46.29601,1898],"type":"Point"}},{"type":"Feature","properties":{"id":1199819285,"title":"San Martino di Castrozza: Tognola Cima","city":"San Martino di Castrozza","country_code":"IT","elevation":2070},"geometry":{"coordinates":[11.785626,46.287499,2070],"type":"Point"}},{"type":"Feature","properties":{"id":1199819394,"title":"San Martino di Castrozza: Punta Ces","city":"San Martino di Castrozza","country_code":"IT","elevation":1680},"geometry":{"coordinates":[11.800003,46.276733,1680],"type":"Point"}},{"type":"Feature","properties":{"id":1199821060,"title":"Sondrio: Garibaldi","city":"Sondrio","country_code":"IT","elevation":306},"geometry":{"coordinates":[9.870486,46.170789,306],"type":"Point"}},{"type":"Feature","properties":{"id":1200002205,"title":"Castelnovo ne' Monti: Pietra di Bismantova 2","city":"Castelnovo ne' Monti","country_code":"IT","elevation":769},"geometry":{"coordinates":[10.402207,44.415467,769],"type":"Point"}},{"type":"Feature","properties":{"id":1200058904,"title":"Torrent-La Cerise: Pila Arrivo seggiovia Chamolè","city":"Torrent-La Cerise","country_code":"IT","elevation":1802},"geometry":{"coordinates":[7.3102,45.685557,1802],"type":"Point"}},{"type":"Feature","properties":{"id":1200059056,"title":"Bionaz","city":"Bionaz","country_code":"IT","elevation":1631},"geometry":{"coordinates":[7.42281,45.873398,1631],"type":"Point"}},{"type":"Feature","properties":{"id":1200059398,"title":"Chamois","city":"Chamois","country_code":"IT","elevation":1818},"geometry":{"coordinates":[7.621422,45.838607,1818],"type":"Point"}},{"type":"Feature","properties":{"id":1200059572,"title":"Cogne","city":"Cogne","country_code":"IT","elevation":1523},"geometry":{"coordinates":[7.35672,45.608394,1523],"type":"Point"}},{"type":"Feature","properties":{"id":1200059705,"title":"Courmayeur: Punta Helbronner","city":"Courmayeur","country_code":"IT","elevation":3380},"geometry":{"coordinates":[6.931595,45.846026,3380],"type":"Point"}},{"type":"Feature","properties":{"id":1200396839,"title":"Le Bonhomme: Webcam station du Lac Blanc 1200 - Massif des Vosges - Alsace","city":"Le Bonhomme","country_code":"FR","elevation":1157},"geometry":{"coordinates":[7.083521,48.136623,1157],"type":"Point"}},{"type":"Feature","properties":{"id":1200418984,"title":"Albaredo per San Marco: Albaredo","city":"Albaredo per San Marco","country_code":"IT","elevation":961},"geometry":{"coordinates":[9.592352,46.101328,961],"type":"Point"}},{"type":"Feature","properties":{"id":1200420839,"title":"Stilfs - Stelvio: Passo - WEBCAM","city":"Stilfs - Stelvio","country_code":"IT","elevation":2759},"geometry":{"coordinates":[10.452558,46.528804,2759],"type":"Point"}},{"type":"Feature","properties":{"id":1200420981,"title":"Piazzatorre","city":"Piazzatorre","country_code":"IT","elevation":1754},"geometry":{"coordinates":[9.718952,45.984409,1754],"type":"Point"}},{"type":"Feature","properties":{"id":1200421433,"title":"Montagna in Valtellina: Sondrio, Alpi Orobiche","city":"Montagna in Valtellina","country_code":"IT","elevation":307},"geometry":{"coordinates":[9.905205,46.17258,307],"type":"Point"}},{"type":"Feature","properties":{"id":1200421441,"title":"Varese","city":"Varese","country_code":"IT","elevation":411},"geometry":{"coordinates":[8.827686,45.823656,411],"type":"Point"}},{"type":"Feature","properties":{"id":1200422925,"title":"Piatto: Bielmonte, vista verso la valle","city":"Piatto","country_code":"IT","elevation":1408},"geometry":{"coordinates":[8.09201,45.662471,1408],"type":"Point"}},{"type":"Feature","properties":{"id":1200423243,"title":"Piatto: Bielmonte, vista villaggio","city":"Piatto","country_code":"IT","elevation":1441},"geometry":{"coordinates":[8.087482,45.661807,1441],"type":"Point"}},{"type":"Feature","properties":{"id":1200423714,"title":"Piatto: Bielmonte vista sulle piste","city":"Piatto","country_code":"IT","elevation":1602},"geometry":{"coordinates":[8.082118,45.665706,1602],"type":"Point"}},{"type":"Feature","properties":{"id":1200499130,"title":"Alagna Valsesia: Pianalunga, Alagna - Valsesia","city":"Alagna Valsesia","country_code":"IT","elevation":2047},"geometry":{"coordinates":[7.903805,45.865718,2047],"type":"Point"}},{"type":"Feature","properties":{"id":1200499877,"title":"Castagneto Po","city":"Castagneto Po","country_code":"IT","elevation":453},"geometry":{"coordinates":[7.889557,45.159769,453],"type":"Point"}},{"type":"Feature","properties":{"id":1200500537,"title":"Pecetto: Torinese","city":"Pecetto","country_code":"IT","elevation":394},"geometry":{"coordinates":[7.751198,45.016151,394],"type":"Point"}},{"type":"Feature","properties":{"id":1200669549,"title":"Gemeinde See › West: Tiroler Paznauntal: See, Kappl, Ischgl, Galtür","city":"Gemeinde See","country_code":"AT","elevation":1178},"geometry":{"coordinates":[10.446582,47.074807,1178],"type":"Point"}},{"type":"Feature","properties":{"id":1201432784,"title":"Barga","city":"Barga","country_code":"IT","elevation":359},"geometry":{"coordinates":[10.480442,44.075624,359],"type":"Point"}},{"type":"Feature","properties":{"id":1201548631,"title":"Colfiorito: PG","city":"Colfiorito","country_code":"IT","elevation":775},"geometry":{"coordinates":[12.89185,43.028939,775],"type":"Point"}},{"type":"Feature","properties":{"id":1201549061,"title":"Periasc: Antagnod","city":"Periasc","country_code":"IT","elevation":1523},"geometry":{"coordinates":[7.696647,45.81272,1523],"type":"Point"}},{"type":"Feature","properties":{"id":1201549113,"title":"Arvier: Aosta Arco","city":"Arvier","country_code":"IT","elevation":582},"geometry":{"coordinates":[7.327924,45.739196,582],"type":"Point"}},{"type":"Feature","properties":{"id":1201549128,"title":"Regione Mollie › South-West: Arpy","city":"Regione Mollie","country_code":"IT","elevation":1705},"geometry":{"coordinates":[7.00902,45.746144,1705],"type":"Point"}},{"type":"Feature","properties":{"id":1201549704,"title":"Champorcher","city":"Champorcher","country_code":"IT","elevation":1957},"geometry":{"coordinates":[7.586536,45.610195,1957],"type":"Point"}},{"type":"Feature","properties":{"id":1201549972,"title":"Ollomont","city":"Ollomont","country_code":"IT","elevation":1401},"geometry":{"coordinates":[7.31123,45.850206,1401],"type":"Point"}},{"type":"Feature","properties":{"id":1201550135,"title":"Saint-Rhemy-en-Bosses: Saint Oyen - Flassin","city":"Saint-Rhemy-en-Bosses","country_code":"IT","elevation":1370},"geometry":{"coordinates":[7.194612,45.819743,1370],"type":"Point"}},{"type":"Feature","properties":{"id":1201550184,"title":"Saint-Vincent › West: Aosta","city":"Saint-Vincent","country_code":"IT","elevation":570},"geometry":{"coordinates":[7.645626,45.751834,570],"type":"Point"}},{"type":"Feature","properties":{"id":1201550244,"title":"Saint-Oyen: Saint-rhemy Crevacol","city":"Saint-Oyen","country_code":"IT","elevation":1324},"geometry":{"coordinates":[7.219734,45.824613,1324],"type":"Point"}},{"type":"Feature","properties":{"id":1201550290,"title":"Valgrisenche","city":"Valgrisenche","country_code":"IT","elevation":1671},"geometry":{"coordinates":[7.064233,45.630762,1671],"type":"Point"}},{"type":"Feature","properties":{"id":1201621887,"title":"Castiglione dei Pepoli › North-West: Castion Di Belluno","city":"Castiglione dei Pepoli","country_code":"IT","elevation":420},"geometry":{"coordinates":[12.23507,46.12147,420],"type":"Point"}},{"type":"Feature","properties":{"id":1201875517,"title":"Seis am Schlern - Siusi allo Sciliar: Alpe Di Siusi - Rif. Molignon","city":"Seis am Schlern - Siusi allo Sciliar","country_code":"IT","elevation":2055},"geometry":{"coordinates":[11.653082,46.509351,2055],"type":"Point"}},{"type":"Feature","properties":{"id":1201875546,"title":"Moena: Alpe Lusia","city":"Moena","country_code":"IT","elevation":2154},"geometry":{"coordinates":[11.69304,46.346342,2154],"type":"Point"}},{"type":"Feature","properties":{"id":1201875607,"title":"Moena: Alpe Lusia - Pista Piavac","city":"Moena","country_code":"IT","elevation":2154},"geometry":{"coordinates":[11.692931,46.346427,2154],"type":"Point"}},{"type":"Feature","properties":{"id":1201875670,"title":"Badia - Abtei: Alta - La Viila - Piste Gran Risa","city":"Badia - Abtei","country_code":"IT","elevation":1441},"geometry":{"coordinates":[11.89858,46.579234,1441],"type":"Point"}},{"type":"Feature","properties":{"id":1201875825,"title":"Badia - Abtei: Alta - Pedraces - Dolomites","city":"Badia - Abtei","country_code":"IT","elevation":1347},"geometry":{"coordinates":[11.893328,46.609217,1347],"type":"Point"}},{"type":"Feature","properties":{"id":1201876541,"title":"Vallelaghi: Andalo - Paganella","city":"Vallelaghi","country_code":"IT","elevation":2100},"geometry":{"coordinates":[11.037046,46.142783,2100],"type":"Point"}},{"type":"Feature","properties":{"id":1201876932,"title":"Eppan an der Weinstrasse - Appiano sulla Strada del Vino: Gasthof Steinegger - Appiano - Eppan","city":"Eppan an der Weinstrasse - Appiano sulla Strada del Vino","country_code":"IT","elevation":605},"geometry":{"coordinates":[11.239893,46.455303,605],"type":"Point"}},{"type":"Feature","properties":{"id":1201877276,"title":"Baselga di Pine: Baselga Di Pinè","city":"Baselga di Pine","country_code":"IT","elevation":953},"geometry":{"coordinates":[11.244389,46.12985,953],"type":"Point"}},{"type":"Feature","properties":{"id":1201965695,"title":"Canazei","city":"Canazei","country_code":"IT","elevation":1529},"geometry":{"coordinates":[11.770992,46.477555,1529],"type":"Point"}},{"type":"Feature","properties":{"id":1201965821,"title":"Cavalese","city":"Cavalese","country_code":"IT","elevation":1323},"geometry":{"coordinates":[11.497536,46.264422,1323],"type":"Point"}},{"type":"Feature","properties":{"id":1201966411,"title":"Reschen - Resia: Bergstation Rojensesselbahn","city":"Reschen - Resia","country_code":"IT","elevation":2354},"geometry":{"coordinates":[10.489859,46.793945,2354],"type":"Point"}},{"type":"Feature","properties":{"id":1201966613,"title":"Luttach - Lutago: Ahrntal","city":"Luttach - Lutago","country_code":"IT","elevation":964},"geometry":{"coordinates":[11.920338,46.951786,964],"type":"Point"}},{"type":"Feature","properties":{"id":1201967488,"title":"San Martino di Castrozza","city":"San Martino di Castrozza","country_code":"IT","elevation":1982},"geometry":{"coordinates":[11.785583,46.296425,1982],"type":"Point"}},{"type":"Feature","properties":{"id":1201979223,"title":"Rein in Taufers - Riva di Tures","city":"Rein in Taufers - Riva di Tures","country_code":"IT","elevation":1578},"geometry":{"coordinates":[12.063847,46.949325,1578],"type":"Point"}},{"type":"Feature","properties":{"id":1201979310,"title":"St. Valentin auf der Haide - San Valentino alla Muta: San Valentino","city":"St. Valentin auf der Haide - San Valentino alla Muta","country_code":"IT","elevation":1494},"geometry":{"coordinates":[10.538807,46.76162,1494],"type":"Point"}},{"type":"Feature","properties":{"id":1201979610,"title":"Sexten - Sesto","city":"Sexten - Sesto","country_code":"IT","elevation":1389},"geometry":{"coordinates":[12.34992,46.704321,1389],"type":"Point"}},{"type":"Feature","properties":{"id":1201980510,"title":"Predazzo: Val Di Fiemme","city":"Predazzo","country_code":"IT","elevation":2153},"geometry":{"coordinates":[11.557531,46.334721,2153],"type":"Point"}},{"type":"Feature","properties":{"id":1201981063,"title":"Vigo di Fassa: Sassolungo","city":"Vigo di Fassa","country_code":"IT","elevation":1384},"geometry":{"coordinates":[11.674862,46.419754,1384],"type":"Point"}},{"type":"Feature","properties":{"id":1202207770,"title":"Diessen am Ammersee: Ammersee-Segel- und Motorbootschule Stefan Marx","city":"Diessen am Ammersee","country_code":"DE","elevation":537},"geometry":{"coordinates":[11.111813,47.948431,537],"type":"Point"}},{"type":"Feature","properties":{"id":1202207872,"title":"Diessen am Ammersee: Ammersee-Segelschule in Dießen","city":"Diessen am Ammersee","country_code":"DE","elevation":534},"geometry":{"coordinates":[11.109141,47.951097,534],"type":"Point"}},{"type":"Feature","properties":{"id":1202291463,"title":"Sankt Martin am Tennengebirge: Wohlfühlhotel Martinerhof","city":"Sankt Martin am Tennengebirge","country_code":"AT","elevation":997},"geometry":{"coordinates":[13.385553,47.467481,997],"type":"Point"}},{"type":"Feature","properties":{"id":1202490014,"title":"Brusson","city":"Brusson","country_code":"IT","elevation":1340},"geometry":{"coordinates":[7.72899,45.75926,1340],"type":"Point"}},{"type":"Feature","properties":{"id":1202490660,"title":"Fenis: Fenis Castle","city":"Fenis","country_code":"IT","elevation":552},"geometry":{"coordinates":[7.497311,45.734554,552],"type":"Point"}},{"type":"Feature","properties":{"id":1202663462,"title":"Deutschnofen - Nova Ponente: Val di Fiemme - Rifugio Epircher Laner","city":"Deutschnofen - Nova Ponente","country_code":"IT","elevation":1825},"geometry":{"coordinates":[11.533713,46.372487,1825],"type":"Point"}},{"type":"Feature","properties":{"id":1202907488,"title":"Flasch › North-West: Fläsch - Fläscherberg - Sargans - Gonzen","city":"Flasch","country_code":"CH","elevation":522},"geometry":{"coordinates":[9.513913,47.027736,522],"type":"Point"}},{"type":"Feature","properties":{"id":1203066981,"title":"Sondrio","city":"Sondrio","country_code":"IT","elevation":306},"geometry":{"coordinates":[9.869156,46.17044,306],"type":"Point"}},{"type":"Feature","properties":{"id":1203067407,"title":"Teglio","city":"Teglio","country_code":"IT","elevation":859},"geometry":{"coordinates":[10.06691,46.171747,859],"type":"Point"}},{"type":"Feature","properties":{"id":1203067492,"title":"Teglio","city":"Teglio","country_code":"IT","elevation":859},"geometry":{"coordinates":[10.066738,46.172817,859],"type":"Point"}},{"type":"Feature","properties":{"id":1203067577,"title":"Stilfs - Stelvio: LIVRIO - Passo - PISTE sci estivo","city":"Stilfs - Stelvio","country_code":"IT","elevation":3012},"geometry":{"coordinates":[10.457997,46.517813,3012],"type":"Point"}},{"type":"Feature","properties":{"id":1203067603,"title":"Stilfs - Stelvio","city":"Stilfs - Stelvio","country_code":"IT","elevation":2920},"geometry":{"coordinates":[10.45332,46.514579,2920],"type":"Point"}},{"type":"Feature","properties":{"id":1203067700,"title":"Stilfs - Stelvio: Strade dello - e UMBRAIL","city":"Stilfs - Stelvio","country_code":"IT","elevation":2759},"geometry":{"coordinates":[10.452713,46.528624,2759],"type":"Point"}},{"type":"Feature","properties":{"id":1203068351,"title":"Zambla Alta: Monte Alben","city":"Zambla Alta","country_code":"IT","elevation":1226},"geometry":{"coordinates":[9.7962,45.892278,1226],"type":"Point"}},{"type":"Feature","properties":{"id":1203068393,"title":"Zambla Alta","city":"Zambla Alta","country_code":"IT","elevation":1192},"geometry":{"coordinates":[9.795685,45.892637,1192],"type":"Point"}},{"type":"Feature","properties":{"id":1203076456,"title":"Alzate Brianza: Aeroclub Volovelistico Lariano","city":"Alzate Brianza","country_code":"IT","elevation":380},"geometry":{"coordinates":[9.164486,45.771879,380],"type":"Point"}},{"type":"Feature","properties":{"id":1203086787,"title":"Marktgemeinde Matrei in Osttirol: Matrei in Osttirol - St. Nikolaus","city":"Marktgemeinde Matrei in Osttirol","country_code":"AT","elevation":980},"geometry":{"coordinates":[12.538244,47.000027,980],"type":"Point"}},{"type":"Feature","properties":{"id":1203094571,"title":"Stilfs - Stelvio: Stilfser Joch - National Park","city":"Stilfs - Stelvio","country_code":"IT","elevation":2759},"geometry":{"coordinates":[10.453148,46.528517,2759],"type":"Point"}},{"type":"Feature","properties":{"id":1203094581,"title":"Stilfs - Stelvio: PASSO - WEBCAM","city":"Stilfs - Stelvio","country_code":"IT","elevation":2759},"geometry":{"coordinates":[10.453534,46.528111,2759],"type":"Point"}},{"type":"Feature","properties":{"id":1203102928,"title":"Arth: Rigi Kulm","city":"Arth","country_code":"CH","elevation":1755},"geometry":{"coordinates":[8.485358,47.054686,1755],"type":"Point"}},{"type":"Feature","properties":{"id":1203160430,"title":"Badia - Abtei: Pedraces - Alta","city":"Badia - Abtei","country_code":"IT","elevation":1338},"geometry":{"coordinates":[11.898022,46.600511,1338],"type":"Point"}},{"type":"Feature","properties":{"id":1203356064,"title":"Innsbruck: Goldenes Dachl","city":"Innsbruck","country_code":"AT","elevation":586},"geometry":{"coordinates":[11.393251,47.268237,586],"type":"Point"}},{"type":"Feature","properties":{"id":1203356810,"title":"Innsbruck › North: Maria-Theresien-Straße","city":"Innsbruck","country_code":"AT","elevation":585},"geometry":{"coordinates":[11.394519,47.265063,585],"type":"Point"}},{"type":"Feature","properties":{"id":1203537303,"title":"Sestola: Agriturismo del Cimone","city":"Sestola","country_code":"IT","elevation":1199},"geometry":{"coordinates":[10.755444,44.21192,1199],"type":"Point"}},{"type":"Feature","properties":{"id":1204125176,"title":"Weilheim: Wettercam in - Bannholz","city":"Weilheim","country_code":"DE","elevation":749},"geometry":{"coordinates":[8.160481,47.672916,749],"type":"Point"}},{"type":"Feature","properties":{"id":1205056539,"title":"Wetzelsdorf: Graz Panorama, Ölberg","city":"Wetzelsdorf","country_code":"AT","elevation":432},"geometry":{"coordinates":[15.384786,47.052245,432],"type":"Point"}},{"type":"Feature","properties":{"id":1205080966,"title":"Waldkirch: Ruine Kastelburg","city":"Waldkirch","country_code":"DE","elevation":344},"geometry":{"coordinates":[7.957706,48.097515,344],"type":"Point"}},{"type":"Feature","properties":{"id":1205336783,"title":"Huttschlag: Talschluß Grossarltal","city":"Huttschlag","country_code":"AT","elevation":1039},"geometry":{"coordinates":[13.275572,47.160398,1039],"type":"Point"}},{"type":"Feature","properties":{"id":1206322727,"title":"Marktgemeinde St. Johann in Tirol › North-West: Wilder Kaiser","city":"Marktgemeinde St. Johann in Tirol","country_code":"AT","elevation":709},"geometry":{"coordinates":[12.424164,47.516034,709],"type":"Point"}},{"type":"Feature","properties":{"id":1206379366,"title":"Les Bois: Golf-Club","city":"Les Bois","country_code":"CH","elevation":1016},"geometry":{"coordinates":[6.902694,47.16728,1016],"type":"Point"}},{"type":"Feature","properties":{"id":1206819467,"title":"Gemeinde Nesselwangle: Krinnenalpe","city":"Gemeinde Nesselwangle","country_code":"AT","elevation":1512},"geometry":{"coordinates":[10.588581,47.479788,1512],"type":"Point"}},{"type":"Feature","properties":{"id":1206825968,"title":"Oberstdorf: Nebelhorn","city":"Oberstdorf","country_code":"DE","elevation":1922},"geometry":{"coordinates":[10.346495,47.414026,1922],"type":"Point"}},{"type":"Feature","properties":{"id":1206826682,"title":"Gemeinde Mittelberg: Fellhorn II, Fellhornbahn Gipfelstation, Oberstdorf","city":"Gemeinde Mittelberg","country_code":"AT","elevation":1960},"geometry":{"coordinates":[10.215418,47.348172,1960],"type":"Point"}},{"type":"Feature","properties":{"id":1206827124,"title":"Oberstdorf: Söllereck Berghaus Schönblick","city":"Oberstdorf","country_code":"DE","elevation":1344},"geometry":{"coordinates":[10.240771,47.381696,1344],"type":"Point"}},{"type":"Feature","properties":{"id":1206830469,"title":"Gargellen: Montafon - Talabfahrt","city":"Gargellen","country_code":"AT","elevation":1532},"geometry":{"coordinates":[9.918884,46.96186,1532],"type":"Point"}},{"type":"Feature","properties":{"id":1207149819,"title":"Munich › South: Thalkirchner Brücke - Isarauen","city":"Munich","country_code":"DE","elevation":523},"geometry":{"coordinates":[11.550976,48.104902,523],"type":"Point"}},{"type":"Feature","properties":{"id":1207347267,"title":"Ofterschwang: Bergbahnen - Bergstation Weltcup","city":"Ofterschwang","country_code":"DE","elevation":1307},"geometry":{"coordinates":[10.214249,47.498735,1307],"type":"Point"}},{"type":"Feature","properties":{"id":1207347618,"title":"Obermaiselstein: Grasgehren - Riedbergpaß - WebCam 1","city":"Obermaiselstein","country_code":"DE","elevation":1440},"geometry":{"coordinates":[10.175901,47.443113,1440],"type":"Point"}},{"type":"Feature","properties":{"id":1207571393,"title":"Gemeinde Achenkirch: Achenkirch - Achensee","city":"Gemeinde Achenkirch","country_code":"AT","elevation":1230},"geometry":{"coordinates":[11.683574,47.506447,1230],"type":"Point"}},{"type":"Feature","properties":{"id":1207571700,"title":"Pertisau: Feilkopf - Achensee - Karwendel","city":"Pertisau","country_code":"AT","elevation":976},"geometry":{"coordinates":[11.686556,47.439315,976],"type":"Point"}},{"type":"Feature","properties":{"id":1207672476,"title":"Chamonix-Mont-Blanc: Alpes Chamonix Mont Blanc","city":"Chamonix-Mont-Blanc","country_code":"FR","elevation":1896},"geometry":{"coordinates":[6.917632,45.931744,1896],"type":"Point"}},{"type":"Feature","properties":{"id":1207672639,"title":"Champagny-en-Vanoise: Champagny en Vanoise 2","city":"Champagny-en-Vanoise","country_code":"FR","elevation":1286},"geometry":{"coordinates":[6.693935,45.456663,1286],"type":"Point"}},{"type":"Feature","properties":{"id":1207677495,"title":"Thones: Alpes Les Clefs sur","city":"Thones","country_code":"FR","elevation":622},"geometry":{"coordinates":[6.324692,45.882624,622],"type":"Point"}},{"type":"Feature","properties":{"id":1207677696,"title":"Demi-Quartier: Megeve Downtown","city":"Demi-Quartier","country_code":"FR","elevation":1112},"geometry":{"coordinates":[6.619778,45.857523,1112],"type":"Point"}},{"type":"Feature","properties":{"id":1207759885,"title":"Talloires-Montmin: Plage Lac d'Annecy","city":"Talloires-Montmin","country_code":"FR","elevation":460},"geometry":{"coordinates":[6.212801,45.838293,460],"type":"Point"}},{"type":"Feature","properties":{"id":1208368844,"title":"Gemeinde Tschagguns: Tschaggunser Mittagspitze","city":"Gemeinde Tschagguns","country_code":"AT","elevation":672},"geometry":{"coordinates":[9.91014,47.080965,672],"type":"Point"}},{"type":"Feature","properties":{"id":1208634909,"title":"Les Contamines-Montjoie","city":"Les Contamines-Montjoie","country_code":"FR","elevation":1871},"geometry":{"coordinates":[6.693689,45.786799,1871],"type":"Point"}},{"type":"Feature","properties":{"id":1208682005,"title":"Caussols: Côte d'Azur","city":"Caussols","country_code":"FR","elevation":1265},"geometry":{"coordinates":[6.924219,43.751877,1265],"type":"Point"}},{"type":"Feature","properties":{"id":1210072799,"title":"Schliersee: Schliersbergalm","city":"Schliersee","country_code":"DE","elevation":1054},"geometry":{"coordinates":[11.873474,47.741055,1054],"type":"Point"}},{"type":"Feature","properties":{"id":1210104942,"title":"Graz: Construction Site 'Zanklhof 2","city":"Graz","country_code":"AT","elevation":362},"geometry":{"coordinates":[15.407746,47.094056,362],"type":"Point"}},{"type":"Feature","properties":{"id":1210275072,"title":"Todtmoos: Blick ins Todtmooser Tal","city":"Todtmoos","country_code":"DE","elevation":875},"geometry":{"coordinates":[7.999978,47.750866,875],"type":"Point"}},{"type":"Feature","properties":{"id":1210275313,"title":"Todtmoos: Blick vom Hotel Rößle auf den Kirchberg","city":"Todtmoos","country_code":"DE","elevation":875},"geometry":{"coordinates":[7.999506,47.750636,875],"type":"Point"}},{"type":"Feature","properties":{"id":1210440825,"title":"Courmayeur: Chamonix bicable gondola","city":"Courmayeur","country_code":"IT","elevation":3579},"geometry":{"coordinates":[6.888091,45.878726,3579],"type":"Point"}},{"type":"Feature","properties":{"id":1211804337,"title":"Malans: Aelplibahn","city":"Malans","country_code":"CH","elevation":1870},"geometry":{"coordinates":[9.588511,47.012537,1870],"type":"Point"}},{"type":"Feature","properties":{"id":1212677305,"title":"Todtmoos: Kurpark","city":"Todtmoos","country_code":"DE","elevation":796},"geometry":{"coordinates":[8.001641,47.736105,796],"type":"Point"}},{"type":"Feature","properties":{"id":1212847240,"title":"Beaucourt: Live Cam","city":"Beaucourt","country_code":"FR","elevation":433},"geometry":{"coordinates":[6.927034,47.484637,433],"type":"Point"}},{"type":"Feature","properties":{"id":1213876221,"title":"Correncon-en-Vercors: Villard de Lans-Corrençon en Vercors : Domaine alpin Villard/Corrençon : vue sur pistes depuis restaurant Altitude 2000","city":"Correncon-en-Vercors","country_code":"FR","elevation":1711},"geometry":{"coordinates":[5.569854,45.030014,1711],"type":"Point"}},{"type":"Feature","properties":{"id":1213999675,"title":"Berg im Drautal: Hotel Glocknerhof","city":"Berg im Drautal","country_code":"AT","elevation":654},"geometry":{"coordinates":[13.147159,46.748911,654],"type":"Point"}},{"type":"Feature","properties":{"id":1214171608,"title":"Biberach an der Riss: Biberach - Marktplatz","city":"Biberach an der Riss","country_code":"DE","elevation":535},"geometry":{"coordinates":[9.788556,48.09849,535],"type":"Point"}},{"type":"Feature","properties":{"id":1214172474,"title":"Wangen im Allgau: Wangen /Allgäu - Blick von der Bergerhöhe auf 88239 Wangen","city":"Wangen im Allgau","country_code":"DE","elevation":611},"geometry":{"coordinates":[9.815705,47.686077,611],"type":"Point"}},{"type":"Feature","properties":{"id":1214998173,"title":"Meersburg: Fähranleger Meersburg - Meersburg Fähre / Uhldinger Str. - Fährebetrieb Konstanz-Meersburg","city":"Meersburg","country_code":"DE","elevation":399},"geometry":{"coordinates":[9.264751,47.694771,399],"type":"Point"}},{"type":"Feature","properties":{"id":1215095780,"title":"Radolfzell am Bodensee: Marktplatz","city":"Radolfzell am Bodensee","country_code":"DE","elevation":402},"geometry":{"coordinates":[8.970358,47.737202,402],"type":"Point"}},{"type":"Feature","properties":{"id":1215124639,"title":"Hagnau am Bodensee","city":"Hagnau am Bodensee","country_code":"DE","elevation":403},"geometry":{"coordinates":[9.319493,47.673805,403],"type":"Point"}},{"type":"Feature","properties":{"id":1215173468,"title":"Langenargen: Langenargen Hafen","city":"Langenargen","country_code":"DE","elevation":399},"geometry":{"coordinates":[9.539286,47.596645,399],"type":"Point"}},{"type":"Feature","properties":{"id":1215384092,"title":"Horn › North-East: Bad - am Bodensee","city":"Horn","country_code":"CH","elevation":398},"geometry":{"coordinates":[9.468627,47.494697,398],"type":"Point"}},{"type":"Feature","properties":{"id":1215902258,"title":"Bassersdorf","city":"Bassersdorf","country_code":"CH","elevation":462},"geometry":{"coordinates":[8.620019,47.447187,462],"type":"Point"}},{"type":"Feature","properties":{"id":1216370727,"title":"Berlingen: pipo`s BAR am West Point in - am Untersee","city":"Berlingen","country_code":"CH","elevation":412},"geometry":{"coordinates":[9.01083,47.672047,412],"type":"Point"}},{"type":"Feature","properties":{"id":1216664939,"title":"Presseggersee: Appartements Tatschl [See3.at","city":"Presseggersee","country_code":"AT","elevation":563},"geometry":{"coordinates":[13.437985,46.63094,563],"type":"Point"}},{"type":"Feature","properties":{"id":1216828470,"title":"Waldshut-Tiengen: Waldshut Kaiserstr","city":"Waldshut-Tiengen","country_code":"DE","elevation":340},"geometry":{"coordinates":[8.213244,47.622707,340],"type":"Point"}},{"type":"Feature","properties":{"id":1216828562,"title":"Waldshut-Tiengen: Webcam in der Hauptstraße Tiengen","city":"Waldshut-Tiengen","country_code":"DE","elevation":335},"geometry":{"coordinates":[8.275269,47.634815,335],"type":"Point"}},{"type":"Feature","properties":{"id":1217067009,"title":"Ukanc: Voglova","city":"Ukanc","country_code":"SI","elevation":770},"geometry":{"coordinates":[13.830414,46.272906,770],"type":"Point"}},{"type":"Feature","properties":{"id":1217152275,"title":"Gemeinde Waidring › South-East: Erlebnis-Hotel Tiroler Adler Steinplatte Waidring","city":"Gemeinde Waidring","country_code":"AT","elevation":775},"geometry":{"coordinates":[12.568789,47.584631,775],"type":"Point"}},{"type":"Feature","properties":{"id":1217322028,"title":"Lenzerheide: Piz Scalottas","city":"Lenzerheide","country_code":"CH","elevation":2309},"geometry":{"coordinates":[9.510845,46.721888,2309],"type":"Point"}},{"type":"Feature","properties":{"id":1217940701,"title":"Greifensee › North-West: › North-West","city":"Greifensee","country_code":"CH","elevation":433},"geometry":{"coordinates":[8.692932,47.339288,433],"type":"Point"}},{"type":"Feature","properties":{"id":1217942329,"title":"Buttikon: Modellflugplatz","city":"Buttikon","country_code":"CH","elevation":407},"geometry":{"coordinates":[8.970037,47.1786,407],"type":"Point"}},{"type":"Feature","properties":{"id":1218112215,"title":"Filzmoos › South-West: Ferienanlage Reithof","city":"Filzmoos","country_code":"AT","elevation":1183},"geometry":{"coordinates":[13.531208,47.43819,1183],"type":"Point"}},{"type":"Feature","properties":{"id":1218277386,"title":"Vevey: Musée - de l'appareil photographique","city":"Vevey","country_code":"CH","elevation":380},"geometry":{"coordinates":[6.842916,46.459117,380],"type":"Point"}},{"type":"Feature","properties":{"id":1218528808,"title":"Gemeinde Wildschonau › South: Hotel Sun Valley - Auffach","city":"Gemeinde Wildschonau","country_code":"AT","elevation":854},"geometry":{"coordinates":[12.033806,47.410897,854],"type":"Point"}},{"type":"Feature","properties":{"id":1218549372,"title":"Schwangau › South-East: Hohenschwangau Castle - Neuschwanstein Castle - Tegelberg","city":"Schwangau","country_code":"DE","elevation":795},"geometry":{"coordinates":[10.721626,47.572747,795],"type":"Point"}},{"type":"Feature","properties":{"id":1218617597,"title":"Anger: Bad Reichenhall - Piding","city":"Anger","country_code":"DE","elevation":740},"geometry":{"coordinates":[12.894859,47.805373,740],"type":"Point"}},{"type":"Feature","properties":{"id":1219327105,"title":"Uhldingen-Muhlhofen: Pfahlbauten Unteruhldingen","city":"Uhldingen-Muhlhofen","country_code":"DE","elevation":394},"geometry":{"coordinates":[9.228258,47.725692,394],"type":"Point"}},{"type":"Feature","properties":{"id":1219603202,"title":"Blatten: Blattnerhof","city":"Blatten","country_code":"CH","elevation":1339},"geometry":{"coordinates":[7.983681,46.358872,1339],"type":"Point"}},{"type":"Feature","properties":{"id":1219920796,"title":"Altenmarkt im Pongau: HOTEL SCHARTNER | Altenmarkt-Zauchensee","city":"Altenmarkt im Pongau","country_code":"AT","elevation":840},"geometry":{"coordinates":[13.419722,47.380261,840],"type":"Point"}},{"type":"Feature","properties":{"id":1220095552,"title":"Oberammergau","city":"Oberammergau","country_code":"DE","elevation":981},"geometry":{"coordinates":[11.066966,47.613165,981],"type":"Point"}},{"type":"Feature","properties":{"id":1220308451,"title":"Courmayeur: Val Ferret","city":"Courmayeur","country_code":"IT","elevation":1642},"geometry":{"coordinates":[7.021701,45.850146,1642],"type":"Point"}},{"type":"Feature","properties":{"id":1220362611,"title":"La Veze: Aérodrome de Besançon","city":"La Veze","country_code":"FR","elevation":385},"geometry":{"coordinates":[6.078529,47.206275,385],"type":"Point"}},{"type":"Feature","properties":{"id":1220441349,"title":"Morzine: Nyon Webcam","city":"Morzine","country_code":"FR","elevation":1063},"geometry":{"coordinates":[6.716595,46.181851,1063],"type":"Point"}},{"type":"Feature","properties":{"id":1220441704,"title":"Morzine: Pleney Webcam","city":"Morzine","country_code":"FR","elevation":1054},"geometry":{"coordinates":[6.716766,46.182089,1054],"type":"Point"}},{"type":"Feature","properties":{"id":1220450481,"title":"Grossarl: Marktplatz","city":"Grossarl","country_code":"AT","elevation":908},"geometry":{"coordinates":[13.201291,47.23776,908],"type":"Point"}},{"type":"Feature","properties":{"id":1220790234,"title":"Steinbach am Attersee: Seefeld - Roßhütte","city":"Steinbach am Attersee","country_code":"AT","elevation":1249},"geometry":{"coordinates":[11.179157,47.33209,1249],"type":"Point"}},{"type":"Feature","properties":{"id":1220961540,"title":"Stranach: Tschaneck-Piste - Katschberg","city":"Stranach","country_code":"AT","elevation":1624},"geometry":{"coordinates":[13.610687,47.060212,1624],"type":"Point"}},{"type":"Feature","properties":{"id":1220961750,"title":"Sankt Georgen: Edelweiß_Residences am Katschberg","city":"Sankt Georgen","country_code":"AT","elevation":1637},"geometry":{"coordinates":[13.612919,47.055271,1637],"type":"Point"}},{"type":"Feature","properties":{"id":1222117982,"title":"Baretswil: Skilift Steig","city":"Baretswil","country_code":"CH","elevation":715},"geometry":{"coordinates":[8.860763,47.337652,715],"type":"Point"}},{"type":"Feature","properties":{"id":1222167761,"title":"Teufen: Satellitenstation Wilen in St.Gallen","city":"Teufen","country_code":"CH","elevation":772},"geometry":{"coordinates":[9.347296,47.404748,772],"type":"Point"}},{"type":"Feature","properties":{"id":1222192697,"title":"Gortipohl: Landhaus Rudigier im Montafon (landhaus-rudigier.at)","city":"Gortipohl","country_code":"AT","elevation":907},"geometry":{"coordinates":[10.006979,47.003919,907],"type":"Point"}},{"type":"Feature","properties":{"id":1222261039,"title":"Schonwald im Schwarzwald: Schwarzwaldtanne in Schönwald","city":"Schonwald im Schwarzwald","country_code":"DE","elevation":1025},"geometry":{"coordinates":[8.200436,48.097573,1025],"type":"Point"}},{"type":"Feature","properties":{"id":1222279962,"title":"Ravoire: Vue sur la route du Col de la Forclaz sur Martigny - France","city":"Ravoire","country_code":"CH","elevation":792},"geometry":{"coordinates":[7.05782,46.10016,792],"type":"Point"}},{"type":"Feature","properties":{"id":1222601600,"title":"Gemeinde Kirchdorf in Tirol: Wilder Kaiser Pension Sonnleitn","city":"Gemeinde Kirchdorf in Tirol","country_code":"AT","elevation":676},"geometry":{"coordinates":[12.455792,47.548783,676],"type":"Point"}},{"type":"Feature","properties":{"id":1222691180,"title":"Locarno: Lago Maggiore, from Cardada","city":"Locarno","country_code":"CH","elevation":1457},"geometry":{"coordinates":[8.798847,46.204666,1457],"type":"Point"}},{"type":"Feature","properties":{"id":1222712293,"title":"Caselle: Diga di Ridracoli","city":"Caselle","country_code":"IT","elevation":535},"geometry":{"coordinates":[11.835537,43.8742,535],"type":"Point"}},{"type":"Feature","properties":{"id":1223043958,"title":"Riedlingen: Flugplatz","city":"Riedlingen","country_code":"DE","elevation":528},"geometry":{"coordinates":[9.468745,48.145379,528],"type":"Point"}},{"type":"Feature","properties":{"id":1223236608,"title":"Bern: Bellevue Palace Bern","city":"Bern","country_code":"CH","elevation":551},"geometry":{"coordinates":[7.447603,46.94664,551],"type":"Point"}},{"type":"Feature","properties":{"id":1223374451,"title":"Munich › North: Flauchersteg - Flaucher","city":"Munich","country_code":"DE","elevation":529},"geometry":{"coordinates":[11.549056,48.102903,529],"type":"Point"}},{"type":"Feature","properties":{"id":1223656826,"title":"Gemeinde Gries am Brenner: Brennerpass Gries am 'Brenner Vinaders Sattelberg Hotel Rose","city":"Gemeinde Gries am Brenner","country_code":"AT","elevation":1213},"geometry":{"coordinates":[11.484393,47.042886,1213],"type":"Point"}},{"type":"Feature","properties":{"id":1223659511,"title":"Gemeinde Gries am Brenner: Landhaus Vötter Gries am Brenner Blick auf Vinaders Obernberger Tribulaun","city":"Gemeinde Gries am Brenner","country_code":"AT","elevation":1280},"geometry":{"coordinates":[11.468568,47.031408,1280],"type":"Point"}},{"type":"Feature","properties":{"id":1223663111,"title":"Cavalese: Val di Fiemme, Dolomiti","city":"Cavalese","country_code":"IT","elevation":1010},"geometry":{"coordinates":[11.459169,46.291962,1010],"type":"Point"}},{"type":"Feature","properties":{"id":1224241026,"title":"Abtenau: Skigebiet Karkogel - Lammertal - Bild 2 - Karkogel Rennstrecke","city":"Abtenau","country_code":"AT","elevation":1055},"geometry":{"coordinates":[13.356478,47.547742,1055],"type":"Point"}},{"type":"Feature","properties":{"id":1224241325,"title":"Abtenau: Webcam Karkogel","city":"Abtenau","country_code":"AT","elevation":1137},"geometry":{"coordinates":[13.359224,47.545624,1137],"type":"Point"}},{"type":"Feature","properties":{"id":1224253475,"title":"Triberg im Schwarzwald: Triberg Cam - Blick auf den Triberger Wasserfall","city":"Triberg im Schwarzwald","country_code":"DE","elevation":717},"geometry":{"coordinates":[8.23009,48.128117,717],"type":"Point"}},{"type":"Feature","properties":{"id":1224253717,"title":"Schonach im Schwarzwald: Kurgarten","city":"Schonach im Schwarzwald","country_code":"DE","elevation":865},"geometry":{"coordinates":[8.198365,48.142,865],"type":"Point"}},{"type":"Feature","properties":{"id":1224253925,"title":"Schonwald im Schwarzwald: Schönwald Schanze Cam","city":"Schonwald im Schwarzwald","country_code":"DE","elevation":1090},"geometry":{"coordinates":[8.19329,48.10243,1090],"type":"Point"}},{"type":"Feature","properties":{"id":1224525866,"title":"Hammersbach: Grainau Wachterhaus Ferienwohnung","city":"Hammersbach","country_code":"DE","elevation":760},"geometry":{"coordinates":[11.041678,47.471031,760],"type":"Point"}},{"type":"Feature","properties":{"id":1225044830,"title":"Dienten am Hochkonig: Hotel UebergosseneAlm.at","city":"Dienten am Hochkonig","country_code":"AT","elevation":1233},"geometry":{"coordinates":[13.025837,47.388472,1233],"type":"Point"}},{"type":"Feature","properties":{"id":1225179233,"title":"Stadt Lienz: Lienz Hauptplatz","city":"Stadt Lienz","country_code":"AT","elevation":675},"geometry":{"coordinates":[12.768903,46.829752,675],"type":"Point"}},{"type":"Feature","properties":{"id":1225179604,"title":"Gemeinde Lavant: Dolomitengolf Lienz","city":"Gemeinde Lavant","country_code":"AT","elevation":643},"geometry":{"coordinates":[12.837739,46.80567,643],"type":"Point"}},{"type":"Feature","properties":{"id":1225183893,"title":"Herrsching am Ammersee: Ammersee","city":"Herrsching am Ammersee","country_code":"DE","elevation":538},"geometry":{"coordinates":[11.167688,47.9996,538],"type":"Point"}},{"type":"Feature","properties":{"id":1225217984,"title":"Bayrischzell: Wendelstein (Oberbayerischer Berg)","city":"Bayrischzell","country_code":"DE","elevation":1641},"geometry":{"coordinates":[12.009773,47.703293,1641],"type":"Point"}},{"type":"Feature","properties":{"id":1225277534,"title":"Montvalezan: La Rosière - Maison du Ski (1850m)","city":"Montvalezan","country_code":"FR","elevation":1855},"geometry":{"coordinates":[6.848431,45.628895,1855],"type":"Point"}},{"type":"Feature","properties":{"id":1225880502,"title":"Belp: Swiss Helicopter AG - Berne","city":"Belp","country_code":"CH","elevation":510},"geometry":{"coordinates":[7.498298,46.905946,510],"type":"Point"}},{"type":"Feature","properties":{"id":1225983235,"title":"Naturns - Naturno: Linthof","city":"Naturns - Naturno","country_code":"IT","elevation":1244},"geometry":{"coordinates":[10.991135,46.664517,1244],"type":"Point"}},{"type":"Feature","properties":{"id":1226249416,"title":"Grimentz: view over the valley of Anniviers","city":"Grimentz","country_code":"CH","elevation":1603},"geometry":{"coordinates":[7.575459,46.182057,1603],"type":"Point"}},{"type":"Feature","properties":{"id":1226253969,"title":"Saint-Francois-Longchamp: Panoramique - Le village de Saint Francois Longchamp 1650","city":"Saint-Francois-Longchamp","country_code":"FR","elevation":1595},"geometry":{"coordinates":[6.363723,45.417506,1595],"type":"Point"}},{"type":"Feature","properties":{"id":1226321304,"title":"Guttannen: Berghaus Oberaar - Oberaarsee","city":"Guttannen","country_code":"CH","elevation":2368},"geometry":{"coordinates":[8.277447,46.548898,2368],"type":"Point"}},{"type":"Feature","properties":{"id":1226399640,"title":"Munstertal: St. Trudpert, Münstertal (Schwarzwald)","city":"Munstertal","country_code":"DE","elevation":422},"geometry":{"coordinates":[7.798759,47.864443,422],"type":"Point"}},{"type":"Feature","properties":{"id":1226659430,"title":"Gemeinde Tschagguns: Bergbahnen Golm Grüneck","city":"Gemeinde Tschagguns","country_code":"AT","elevation":1903},"geometry":{"coordinates":[9.84456,47.064443,1903],"type":"Point"}},{"type":"Feature","properties":{"id":1226659547,"title":"Gemeinde Bartholomaberg: Bergbahnen Golm Rätikon","city":"Gemeinde Bartholomaberg","country_code":"AT","elevation":1235},"geometry":{"coordinates":[9.838257,47.087891,1235],"type":"Point"}},{"type":"Feature","properties":{"id":1226659627,"title":"Gemeinde Tschagguns: Bergbahnen Golm Matschwitz","city":"Gemeinde Tschagguns","country_code":"AT","elevation":1477},"geometry":{"coordinates":[9.86061,47.069938,1477],"type":"Point"}},{"type":"Feature","properties":{"id":1226691645,"title":"Villeneuve: Les Pléiades 2","city":"Villeneuve","country_code":"CH","elevation":1900},"geometry":{"coordinates":[6.975288,46.431147,1900],"type":"Point"}},{"type":"Feature","properties":{"id":1226929566,"title":"Talloires-Montmin: Baie de Talloires - Talloires - Lake Annecy - Annecy","city":"Talloires-Montmin","country_code":"FR","elevation":453},"geometry":{"coordinates":[6.211234,45.839911,453],"type":"Point"}},{"type":"Feature","properties":{"id":1227032784,"title":"Todtnau: Muggenbrunn, Schilift","city":"Todtnau","country_code":"DE","elevation":965},"geometry":{"coordinates":[7.917098,47.858058,965],"type":"Point"}},{"type":"Feature","properties":{"id":1227185111,"title":"Zurich: Helmhaus - Frauenbad Stadthausquai - barfussbar - Grossmünster - Zurich town hall - Limmat - Lake Zurich","city":"Zurich","country_code":"CH","elevation":419},"geometry":{"coordinates":[8.54142,47.36967,419],"type":"Point"}},{"type":"Feature","properties":{"id":1227262731,"title":"Evolene: Dent Blanche","city":"Evolene","country_code":"CH","elevation":1340},"geometry":{"coordinates":[7.490101,46.114316,1340],"type":"Point"}},{"type":"Feature","properties":{"id":1227265646,"title":"Sonthofen: im Allgäu - Rathausplatz","city":"Sonthofen","country_code":"DE","elevation":749},"geometry":{"coordinates":[10.281454,47.513425,749],"type":"Point"}},{"type":"Feature","properties":{"id":1227437233,"title":"Piazzatorre: Torcole","city":"Piazzatorre","country_code":"IT","elevation":1760},"geometry":{"coordinates":[9.709854,45.977639,1760],"type":"Point"}},{"type":"Feature","properties":{"id":1227476793,"title":"Sargans: Eispark Sarganserland","city":"Sargans","country_code":"CH","elevation":482},"geometry":{"coordinates":[9.441719,47.043077,482],"type":"Point"}},{"type":"Feature","properties":{"id":1227478152,"title":"Atzing: Hotel Victoria, Maishofen","city":"Atzing","country_code":"AT","elevation":770},"geometry":{"coordinates":[12.800349,47.357534,770],"type":"Point"}},{"type":"Feature","properties":{"id":1227502065,"title":"Tschiertschen: Dorf","city":"Tschiertschen","country_code":"CH","elevation":1347},"geometry":{"coordinates":[9.607265,46.815378,1347],"type":"Point"}},{"type":"Feature","properties":{"id":1227540013,"title":"Sestola: Passo del lupo","city":"Sestola","country_code":"IT","elevation":1538},"geometry":{"coordinates":[10.719093,44.215043,1538],"type":"Point"}},{"type":"Feature","properties":{"id":1227540108,"title":"Sestola: Lago della Ninfa","city":"Sestola","country_code":"IT","elevation":1510},"geometry":{"coordinates":[10.725168,44.209268,1510],"type":"Point"}},{"type":"Feature","properties":{"id":1227540173,"title":"Fanano: Cimoncino","city":"Fanano","country_code":"IT","elevation":1393},"geometry":{"coordinates":[10.731431,44.199339,1393],"type":"Point"}},{"type":"Feature","properties":{"id":1227700496,"title":"Gemeinde Tux › South-West: Schöne Aussicht","city":"Gemeinde Tux","country_code":"AT","elevation":1326},"geometry":{"coordinates":[11.74814,47.16483,1326],"type":"Point"}},